{
    "Data As Of SEP 2025": [
        {
            "contractor_id": "VN001041",
            "code": "VN001041",
            "address": "LOT C2 5",
            "workers": 386,
            "workers_line": 286,
            "workers_female": 0,
            "workers_migrant": 0,
            "lat": 11.009958,
            "lon": 106.693889,
            "name": "KURIM VIETNAM CO., LTD",
            "city": "Binh Duong",
            "state": "Bình Duong",
            "postal_code": "75100",
            "average_worker_age": 33,
            "supplier_name": "KURIM",
            "factory_tier": "Tier 2/BTL",
            "product_type": "Footwear",
            "brand": "Nike",
            "special_events": "",
            "country/region": "Vietnam",
            "region": "SE ASIA",
            "geoData": null
        },
        {
            "contractor_id": "VN001337",
            "code": "VN001337",
            "address": "Lot G14 Que Vo Industrial Park expansion",
            "workers": 62,
            "workers_line": 58,
            "workers_female": 55,
            "workers_migrant": 3,
            "lat": 21.156218,
            "lon": 106.119583,
            "name": "HESHENG CO., LTD.",
            "city": "Bac Ninh",
            "state": "Bc Ninh",
            "postal_code": "16852",
            "average_worker_age": 33,
            "supplier_name": "HESHENG",
            "factory_tier": "Tier 1/ATL",
            "product_type": "Equipment",
            "brand": "Nike",
            "special_events": "Collegiate",
            "country/region": "Vietnam",
            "region": "SE ASIA",
            "geoData": null
        },
        {
            "contractor_id": "VN000221",
            "code": "HTV VIE",
            "address": "Block A3.2, Tay An Industrial Zone, Duy Trung Commune",
            "workers": 1692,
            "workers_line": 1677,
            "workers_female": 84,
            "workers_migrant": 0,
            "lat": 15.80807,
            "lon": 108.25712,
            "name": "Hi-Tech Viet Nam Apparel Co.,Ltd.",
            "city": "Duy Xuyen District",
            "state": "Qung Nam",
            "postal_code": "560000",
            "average_worker_age": 31,
            "supplier_name": "HI TECH",
            "factory_tier": "Tier 1/ATL",
            "product_type": "Apparel",
            "brand": "Nike",
            "special_events": "",
            "country/region": "Vietnam",
            "region": "SE ASIA",
            "geoData": null
        },
        {
            "contractor_id": "VN003240",
            "code": "VN003240",
            "address": "Lot CN 37B Zone C Phong Dien Industrial Zone Phong Dien Ward",
            "workers": 445,
            "workers_line": 397,
            "workers_female": 0,
            "workers_migrant": 0,
            "lat": 16.579108,
            "lon": 107.379671,
            "name": "B'LAO SPORT COMPANY LIMITED",
            "city": "Hue",
            "state": "Tha Thiên-Hu",
            "postal_code": "530000",
            "average_worker_age": 33,
            "supplier_name": "BLAO SPORT",
            "factory_tier": "Tier 1/ATL",
            "product_type": "Apparel",
            "brand": "Nike",
            "special_events": "",
            "country/region": "Vietnam",
            "region": "SE ASIA",
            "geoData": null
        },
        {
            "contractor_id": "VN002630",
            "code": "VN002630",
            "address": "Ngoi Cheo Hamlet Nam Hoa Commune ",
            "workers": 1431,
            "workers_line": 1290,
            "workers_female": 75,
            "workers_migrant": 0,
            "lat": 21.609532,
            "lon": 105.917116,
            "name": "TNG INVESTMENT AND TRADING JSC - DONG HY GARMENT",
            "city": "Thai Nguyen City",
            "state": "Thái Nguyên",
            "postal_code": "25000",
            "average_worker_age": 31,
            "supplier_name": "TNG",
            "factory_tier": "Tier 1/ATL",
            "product_type": "Apparel",
            "brand": "Nike",
            "special_events": "",
            "country/region": "Vietnam",
            "region": "SE ASIA",
            "geoData": null
        },
        {
            "contractor_id": "VN003235",
            "code": "VN003235",
            "address": "Street No 5 Long Khanh Industrial Zone",
            "workers": 1003,
            "workers_line": 779,
            "workers_female": 0,
            "workers_migrant": 0,
            "lat": 10.58106,
            "lon": 107.21542,
            "name": "ELITE APPARATECH LLC",
            "city": "Long Khanh City",
            "state": "Ðng Nai",
            "postal_code": "76000",
            "average_worker_age": 24,
            "supplier_name": "ELITE APPARATECH",
            "factory_tier": "Tier 1/ATL",
            "product_type": "Apparel",
            "brand": "Nike",
            "special_events": "",
            "country/region": "Vietnam",
            "region": "SE ASIA",
            "geoData": null
        },
        {
            "contractor_id": "VN000682",
            "code": "VN000682",
            "address": "11F., No.585, Ruiguang Rd.",
            "workers": 2780,
            "workers_line": 2456,
            "workers_female": 90,
            "workers_migrant": 0,
            "lat": 11.1423834,
            "lon": 106.6291304,
            "name": "SNP CO.,LTD.",
            "city": "Taipei City",
            "state": "Bình Duong",
            "postal_code": "11492",
            "average_worker_age": 28,
            "supplier_name": "SPORTS CITY",
            "factory_tier": "Tier 1/ATL",
            "product_type": "Apparel",
            "brand": "Nike",
            "special_events": "",
            "country/region": "Vietnam",
            "region": "SE ASIA",
            "geoData": null
        },
        {
            "contractor_id": "VN000625",
            "code": "MXP25 VIE",
            "address": "No 361 Nguyen Van Troi",
            "workers": 443,
            "workers_line": 408,
            "workers_female": 87,
            "workers_migrant": 0,
            "lat": 10.7958004,
            "lon": 106.6751126,
            "name": "MAXPORT LIMITED VIET NAM _ NAM DINH BRANCH MAXPORT 06",
            "city": "Nam Dinh",
            "state": "Nam Ðnh",
            "postal_code": "42000",
            "average_worker_age": 39,
            "supplier_name": "MAXPORT",
            "factory_tier": "Tier 1/ATL",
            "product_type": "Apparel",
            "brand": "Nike",
            "special_events": "Collegiate",
            "country/region": "Vietnam",
            "region": "SE ASIA",
            "geoData": null
        },
        {
            "contractor_id": "VN003275",
            "code": "VN003275",
            "address": "Doi 30 Industrial Clusters ",
            "workers": 495,
            "workers_line": 457,
            "workers_female": 0,
            "workers_migrant": 0,
            "lat": 15.542953,
            "lon": 108.420092,
            "name": "Germton Development Company Limited",
            "city": "Phu Ninh District",
            "state": "Qung Nam",
            "postal_code": "52706",
            "average_worker_age": 33,
            "supplier_name": "GERMTON DEVELOPMENT",
            "factory_tier": "Tier 1/ATL",
            "product_type": "Apparel",
            "brand": "Nike",
            "special_events": "",
            "country/region": "Vietnam",
            "region": "SE ASIA",
            "geoData": null
        },
        {
            "contractor_id": "VN000658",
            "code": "VN658 VIE",
            "address": "Lot H  An Nghiep Industrial Zone  An Ninh Commune",
            "workers": 1897,
            "workers_line": 1446,
            "workers_female": 88,
            "workers_migrant": 1,
            "lat": 9.637659,
            "lon": 105.949644,
            "name": "TUNTEX SOC TRANG VIETNAM CO.LTD",
            "city": "Can Tho",
            "state": "Sóc Trang",
            "postal_code": "94000",
            "average_worker_age": 30,
            "supplier_name": "TUNTEX",
            "factory_tier": "Tier 1/ATL",
            "product_type": "Apparel",
            "brand": "Nike",
            "special_events": "Collegiate",
            "country/region": "Vietnam",
            "region": "SE ASIA",
            "geoData": null
        },
        {
            "contractor_id": "VN002334",
            "code": "VN002334",
            "address": "HOA PHU INDUSTRIAL PARK",
            "workers": 693,
            "workers_line": 494,
            "workers_female": 45,
            "workers_migrant": 0,
            "lat": 10.164315,
            "lon": 105.935052,
            "name": "VIETNAM CHINGLUH SHOES CO.,LTD - VINH LONG BRANCH II",
            "city": "LONG HO DISTRICT",
            "state": "Vinh Long",
            "postal_code": "890000",
            "average_worker_age": 29,
            "supplier_name": "CHING LUH",
            "factory_tier": "Tier 1/ATL",
            "product_type": "Footwear",
            "brand": "Nike",
            "special_events": "",
            "country/region": "Vietnam",
            "region": "SE ASIA",
            "geoData": null
        },
        {
            "contractor_id": "VN000451",
            "code": "SIV SIGB VIE",
            "address": "58 Thoai Ngoc Hau street",
            "workers": 1625,
            "workers_line": 1345,
            "workers_female": 77,
            "workers_migrant": 0,
            "lat": 10.7833,
            "lon": 106.6381,
            "name": "VIET THINH GARMENT JOINT STOCK COMPANY",
            "city": "HO CHI MINH",
            "state": "Ho Chi Minh",
            "postal_code": "84",
            "average_worker_age": 37,
            "supplier_name": "SOUTH ISLAND",
            "factory_tier": "Tier 1/ATL",
            "product_type": "Apparel",
            "brand": "Nike",
            "special_events": "Collegiate",
            "country/region": "Vietnam",
            "region": "SE ASIA",
            "geoData": null
        },
        {
            "contractor_id": "VN002659",
            "code": "VN002659",
            "address": "Lang Xuyen village",
            "workers": 2353,
            "workers_line": 2097,
            "workers_female": 96,
            "workers_migrant": 0,
            "lat": 20.880585,
            "lon": 106.29963,
            "name": "Haivina Co., Ltd.",
            "city": "Hai Duong province",
            "state": "Hi Duong",
            "postal_code": "170000",
            "average_worker_age": 39,
            "supplier_name": "HAIVINA",
            "factory_tier": "Tier 1/ATL",
            "product_type": "Equipment",
            "brand": "Nike",
            "special_events": "",
            "country/region": "Vietnam",
            "region": "SE ASIA",
            "geoData": null
        },
        {
            "contractor_id": "VN002614",
            "code": "VN002614",
            "address": "Tan Phu Industrial Zone Tan Phu District",
            "workers": 3137,
            "workers_line": 2751,
            "workers_female": 80,
            "workers_migrant": 0,
            "lat": 11.274997,
            "lon": 107.424112,
            "name": "FASHION GARMENTS 2 CO., LTD. - TAN PHU BRANCH",
            "city": "Tan Phu district",
            "state": "Ðng Nai",
            "postal_code": "76800",
            "average_worker_age": 18,
            "supplier_name": "FASHION GARMENTS",
            "factory_tier": "Tier 1/ATL",
            "product_type": "Apparel",
            "brand": "Nike",
            "special_events": "",
            "country/region": "Vietnam",
            "region": "SE ASIA",
            "geoData": null
        },
        {
            "contractor_id": "VN000166",
            "code": "FGL2 VIE",
            "address": "Lot 4, Road 13A, Bien Hoa Industrial Zone 2, Long Binh Ward",
            "workers": 1832,
            "workers_line": 1676,
            "workers_female": 85,
            "workers_migrant": 0,
            "lat": 10.95273,
            "lon": 106.89686,
            "name": "FASHION GARMENTS 2 CO., LTD",
            "city": "Bien Hoa",
            "state": "Ðng Nai",
            "postal_code": "810000",
            "average_worker_age": 35,
            "supplier_name": "HIRDARAMANI",
            "factory_tier": "Tier 1/ATL",
            "product_type": "Apparel",
            "brand": "Nike",
            "special_events": "",
            "country/region": "Vietnam",
            "region": "SE ASIA",
            "geoData": null
        },
        {
            "contractor_id": "VN001251",
            "code": "VN001251",
            "address": "Lot 10 N2 Road Nhon Trach III Industrial Zone  Phase 2",
            "workers": 2059,
            "workers_line": 1892,
            "workers_female": 1,
            "workers_migrant": 0,
            "lat": 10.754539,
            "lon": 106.732113,
            "name": "YKK VIETNAM CO., LTD",
            "city": "Nhon Trach",
            "state": "Ðng Nai",
            "postal_code": "810000",
            "average_worker_age": 33,
            "supplier_name": "YKK",
            "factory_tier": "Tier 2/BTL",
            "product_type": "Apparel",
            "brand": "Nike",
            "special_events": "",
            "country/region": "Vietnam",
            "region": "SE ASIA",
            "geoData": null
        },
        {
            "contractor_id": "VN000651",
            "code": "EAV VIE",
            "address": "D10/89 Q National High Way 1A Tan Tao Ward Binh Tan District",
            "workers": 2037,
            "workers_line": 1979,
            "workers_female": 83,
            "workers_migrant": 1,
            "lat": 10.74714,
            "lon": 106.59331,
            "name": "Pro Kingtex Vietnam Co., Ltd",
            "city": "HO CHI MINH CITY",
            "state": "Ho Chi Minh",
            "postal_code": "700000",
            "average_worker_age": 37,
            "supplier_name": "EAGLE NICE",
            "factory_tier": "Tier 1/ATL",
            "product_type": "Apparel",
            "brand": "Nike",
            "special_events": "",
            "country/region": "Vietnam",
            "region": "SE ASIA",
            "geoData": null
        },
        {
            "contractor_id": "VN000567",
            "code": "VT2 VIE",
            "address": "KCN Agtex Long Binh",
            "workers": 10593,
            "workers_line": 9714,
            "workers_female": 88,
            "workers_migrant": 0,
            "lat": 10.94251,
            "lon": 106.89923,
            "name": "TKG TAEKWANG VINA JOINT STOCK COMPANY BRANCH 2",
            "city": "Bien Hoa",
            "state": "Ðng Nai",
            "postal_code": "70000",
            "average_worker_age": 38,
            "supplier_name": "TAEKWANG",
            "factory_tier": "Tier 1/ATL",
            "product_type": "Footwear",
            "brand": "Nike",
            "special_events": "",
            "country/region": "Vietnam",
            "region": "SE ASIA",
            "geoData": null
        },
        {
            "contractor_id": "VN001005",
            "code": "JSI VIE",
            "address": "Lot 45 18 02 Road N14 Phuoc Dong Industrial Park",
            "workers": 502,
            "workers_line": 383,
            "workers_female": 27,
            "workers_migrant": 0,
            "lat": 11.131459,
            "lon": 106.342801,
            "name": "TKG ECO MATERIAL SYNTHETIC (VIETNAM)",
            "city": "Tay Ninh",
            "state": "Tây Ninh",
            "postal_code": "840000",
            "average_worker_age": 30,
            "supplier_name": "TKG ECO MATERIAL",
            "factory_tier": "Tier 2/BTL",
            "product_type": "Footwear",
            "brand": "Nike",
            "special_events": "",
            "country/region": "Vietnam",
            "region": "SE ASIA",
            "geoData": null
        },
        {
            "contractor_id": "VN002920",
            "code": "VN002920",
            "address": "Nhon Trach 6 industrial zone",
            "workers": 87,
            "workers_line": 68,
            "workers_female": 0,
            "workers_migrant": 15,
            "lat": 10.7,
            "lon": 106.95,
            "name": "LI CHENG ENTERPRISE VIET NAM CO., LTD",
            "city": "Bien Hoa",
            "state": "Ðng Nai",
            "postal_code": "76000",
            "average_worker_age": 32,
            "supplier_name": "LI CHENG ENTERPRISE",
            "factory_tier": "Tier 2/ATL",
            "product_type": "Footwear",
            "brand": "Nike",
            "special_events": "",
            "country/region": "Vietnam",
            "region": "SE ASIA",
            "geoData": null
        },
        {
            "contractor_id": "VN001136",
            "code": "VN001136",
            "address": "Dong Xoai1 Industrial Park",
            "workers": 177,
            "workers_line": 97,
            "workers_female": 30,
            "workers_migrant": 9,
            "lat": 15.7279718,
            "lon": 108.3860652,
            "name": "SAMBU FINE CHEMICAL CO LTD (VIETNAM)",
            "city": "Tan Thanh Commune Dong Xoai City",
            "state": "Bình Phuc",
            "postal_code": "67108",
            "average_worker_age": 31,
            "supplier_name": "SAMBU FINE CHEMICAL",
            "factory_tier": "Tier 2/ATL",
            "product_type": "Footwear",
            "brand": "Nike",
            "special_events": "",
            "country/region": "Vietnam",
            "region": "SE ASIA",
            "geoData": null
        },
        {
            "contractor_id": "VN000704",
            "code": "VN000704",
            "address": "KCN Lai Vu, H.Kim Thanh, T. Hai Duong",
            "workers": 1127,
            "workers_line": 936,
            "workers_female": 80,
            "workers_migrant": 0,
            "lat": 20.971692,
            "lon": 106.374602,
            "name": "Regent Garment Factory Limited - Business location- Regent 2",
            "city": "Hai Duong",
            "state": "Hai Phong",
            "postal_code": "170000",
            "average_worker_age": 34,
            "supplier_name": "CRYSTAL",
            "factory_tier": "Tier 1/ATL",
            "product_type": "Apparel",
            "brand": "Nike",
            "special_events": "",
            "country/region": "Vietnam",
            "region": "SE ASIA",
            "geoData": null
        },
        {
            "contractor_id": "VN001014",
            "code": "VN001014",
            "address": "Road 8 Nhon Trach 1 Industrial Zone",
            "workers": 350,
            "workers_line": 292,
            "workers_female": 0,
            "workers_migrant": 0,
            "lat": 10.742775,
            "lon": 106.920043,
            "name": "JOOWON VINA CO., LTD.",
            "city": "NHON TRACH DISTRICT",
            "state": "Ðng Nai",
            "postal_code": "810000",
            "average_worker_age": 29,
            "supplier_name": "JOOWON TECH",
            "factory_tier": "Tier 2/BTL",
            "product_type": "Footwear",
            "brand": "Nike",
            "special_events": "",
            "country/region": "Vietnam",
            "region": "SE ASIA",
            "geoData": null
        },
        {
            "contractor_id": "VN000008",
            "code": "ADO VIE",
            "address": "TAM DIEP INDUSTRY ZONE",
            "workers": 7287,
            "workers_line": 6196,
            "workers_female": 86,
            "workers_migrant": 0,
            "lat": 20.1542,
            "lon": 105.880111,
            "name": "ADORA FOOTWEAR LIMITED",
            "city": "Ninh Binh Province",
            "state": "Ninh Bình",
            "postal_code": "430000",
            "average_worker_age": 35,
            "supplier_name": "HUALI",
            "factory_tier": "Tier 1/ATL",
            "product_type": "Footwear",
            "brand": "Converse",
            "special_events": "",
            "country/region": "Vietnam",
            "region": "SE ASIA",
            "geoData": null
        },
        {
            "contractor_id": "VN000504",
            "code": "TDT VIE",
            "address": "Tien Hoi Commune Dai Tu District Thai Nguyen Province",
            "workers": 1993,
            "workers_line": 1829,
            "workers_female": 75,
            "workers_migrant": 0,
            "lat": 21.58759,
            "lon": 105.83952,
            "name": "TNG Investment and Trading JSC - Dai Tu Garment Branch",
            "city": "Thai Nguyen",
            "state": "Thái Nguyên",
            "postal_code": "240000",
            "average_worker_age": 33,
            "supplier_name": "TNG",
            "factory_tier": "Tier 1/ATL",
            "product_type": "Apparel",
            "brand": "Nike",
            "special_events": "",
            "country/region": "Vietnam",
            "region": "SE ASIA",
            "geoData": null
        },
        {
            "contractor_id": "VN000739",
            "code": "VN000739",
            "address": "Vuc Phac Village",
            "workers": 814,
            "workers_line": 691,
            "workers_female": 67,
            "workers_migrant": 0,
            "lat": 19.992886,
            "lon": 105.610649,
            "name": "WEILINA VIET NAM FOOTWEAR COMPANY LIMITED",
            "city": "Yen Dinh District",
            "state": "Thanh Hóa",
            "postal_code": "440000",
            "average_worker_age": 37,
            "supplier_name": "HUALI",
            "factory_tier": "Tier 1/ATL",
            "product_type": "Footwear",
            "brand": "Converse",
            "special_events": "",
            "country/region": "Vietnam",
            "region": "SE ASIA",
            "geoData": null
        },
        {
            "contractor_id": "VN401161",
            "code": "SEY VIE",
            "address": "PLOT NO. 54, NHAT TAN INDUSTRIAL COMPLEX, NHAT TAN COMMUNE,",
            "workers": 320,
            "workers_line": 280,
            "workers_female": 90,
            "workers_migrant": 0,
            "lat": 20.61261,
            "lon": 105.89069,
            "name": "SEYANG CORPORATION VIETNAM",
            "city": "KIMBANG DISTRICT",
            "state": "Hà Nam",
            "postal_code": "400000",
            "average_worker_age": 39,
            "supplier_name": "SEYANG",
            "factory_tier": "Tier 1/ATL",
            "product_type": "Apparel",
            "brand": "Nike",
            "special_events": "",
            "country/region": "Vietnam",
            "region": "SE ASIA",
            "geoData": null
        },
        {
            "contractor_id": "VN000098",
            "code": "EA4 VIE",
            "address": "81 Road Toc Tien Commune Phu My Town",
            "workers": 3025,
            "workers_line": 2258,
            "workers_female": 81,
            "workers_migrant": 0,
            "lat": 10.606873,
            "lon": 107.112979,
            "name": "All Wells International Co., Ltd.",
            "city": "Phu My",
            "state": "Bà Ra - Vung Tàu",
            "postal_code": "790000",
            "average_worker_age": 35,
            "supplier_name": "SPORTS GEAR",
            "factory_tier": "Tier 1/ATL",
            "product_type": "Footwear",
            "brand": "Nike",
            "special_events": "",
            "country/region": "Vietnam",
            "region": "SE ASIA",
            "geoData": null
        },
        {
            "contractor_id": "VN401101",
            "code": "VGT VIE",
            "address": "Dong Que Son IP Huong An  Que Son  Quang Nam Province",
            "workers": 2703,
            "workers_line": 2150,
            "workers_female": 89,
            "workers_migrant": 0,
            "lat": 15.77537,
            "lon": 108.33969,
            "name": "Germton Industrial Company Ltd.",
            "city": "Huong An Town",
            "state": "Qung Nam",
            "postal_code": "560000",
            "average_worker_age": 34,
            "supplier_name": "GERMTON",
            "factory_tier": "Tier 1/ATL",
            "product_type": "Apparel",
            "brand": "Nike",
            "special_events": "",
            "country/region": "Vietnam",
            "region": "SE ASIA",
            "geoData": null
        },
        {
            "contractor_id": "VN002640",
            "code": "VN002640",
            "address": "Tam Thang Industrial Zone",
            "workers": 2185,
            "workers_line": 1907,
            "workers_female": 80,
            "workers_migrant": 0,
            "lat": 15.62721,
            "lon": 108.47136,
            "name": "Fashion Garments Company Limited",
            "city": "TAMKY",
            "state": "Qung Nam",
            "postal_code": "51100",
            "average_worker_age": 25,
            "supplier_name": "FASHION GARMENTS",
            "factory_tier": "Tier 1/ATL",
            "product_type": "Apparel",
            "brand": "Nike",
            "special_events": "",
            "country/region": "Vietnam",
            "region": "SE ASIA",
            "geoData": null
        },
        {
            "contractor_id": "VN002709",
            "code": "VN002709",
            "address": "Lot B 2A CN",
            "workers": 247,
            "workers_line": 70,
            "workers_female": 0,
            "workers_migrant": 33,
            "lat": 11.257413,
            "lon": 106.602782,
            "name": "Tiong Liong Vietnam (VIETNAM ZHONGJU INDUSTRIAL COMPANY LIMITED)",
            "city": "Ho Chi Minh City",
            "state": "Ho Chi Minh",
            "postal_code": "75700",
            "average_worker_age": 28,
            "supplier_name": "TIONG LIONG GROUP",
            "factory_tier": "Tier 2/BTL",
            "product_type": "Footwear",
            "brand": "Nike",
            "special_events": "",
            "country/region": "Vietnam",
            "region": "SE ASIA",
            "geoData": null
        },
        {
            "contractor_id": "VN000374",
            "code": "PEI HLO VIE",
            "address": "NGUYEN VAN LINH STREET",
            "workers": 1850,
            "workers_line": 1600,
            "workers_female": 70,
            "workers_migrant": 0,
            "lat": 20.63659,
            "lon": 106.057,
            "name": "HUNG LONG GARMENT AND SERVICE JOINT STOCK COMPANY",
            "city": "MY HAO",
            "state": "Hung Yên",
            "postal_code": "17000",
            "average_worker_age": 28,
            "supplier_name": "HUNG LONG GARMENT",
            "factory_tier": "Tier 1/ATL",
            "product_type": "Apparel",
            "brand": "Nike",
            "special_events": "",
            "country/region": "Vietnam",
            "region": "SE ASIA",
            "geoData": null
        },
        {
            "contractor_id": "VN000639",
            "code": "EXP01 VIE",
            "address": "Lot No 36A 37A",
            "workers": 800,
            "workers_line": 688,
            "workers_female": 75,
            "workers_migrant": 0,
            "lat": 10.46221,
            "lon": 106.30428,
            "name": "Yegin Industry (Vietnam) Co., Ltd",
            "city": "Tan Phuoc District",
            "state": "Tin Giang",
            "postal_code": "863900",
            "average_worker_age": 32,
            "supplier_name": "YEGIN",
            "factory_tier": "Tier 1/ATL",
            "product_type": "Equipment",
            "brand": "Nike",
            "special_events": "",
            "country/region": "Vietnam",
            "region": "SE ASIA",
            "geoData": null
        },
        {
            "contractor_id": "VN000571",
            "code": "VY VIE",
            "address": "Bau Xeo Industrial Zone Hill Village 61",
            "workers": 15375,
            "workers_line": 11985,
            "workers_female": 82,
            "workers_migrant": 0,
            "lat": 14.058324,
            "lon": 108.277199,
            "name": "Vietnam Pou Sung Co. Ltd.",
            "city": "TRANG BOM",
            "state": "Ðng Nai",
            "postal_code": "76318",
            "average_worker_age": 37,
            "supplier_name": "POU CHEN",
            "factory_tier": "Tier 1/ATL",
            "product_type": "Footwear",
            "brand": "Nike",
            "special_events": "",
            "country/region": "Vietnam",
            "region": "SE ASIA",
            "geoData": null
        },
        {
            "contractor_id": "VN000072",
            "code": "CVT20 VIE",
            "address": "Lot IX1 IX2 IX3 IX4",
            "workers": 2876,
            "workers_line": 2712,
            "workers_female": 97,
            "workers_migrant": 0,
            "lat": 10.65,
            "lon": 107.06,
            "name": "E-Top (Vietnam) Co.,Ltd",
            "city": "Ba Ria-Vung Tau",
            "state": "Bà Ra - Vung Tàu",
            "postal_code": "790000",
            "average_worker_age": 33,
            "supplier_name": "ECLAT",
            "factory_tier": "Tier 1/ATL",
            "product_type": "Apparel",
            "brand": "Nike",
            "special_events": "Collegiate",
            "country/region": "Vietnam",
            "region": "SE ASIA",
            "geoData": null
        },
        {
            "contractor_id": "VN000557",
            "code": "VL VIE",
            "address": "Saigon Linh Trung 1",
            "workers": 10026,
            "workers_line": 8526,
            "workers_female": 85,
            "workers_migrant": 0,
            "lat": 10.8494,
            "lon": 106.754,
            "name": "FREETREND INDUSTRIAL (VIETNAM) CO., LTD",
            "city": "Thu Duc",
            "state": "Ho Chi Minh",
            "postal_code": "71314",
            "average_worker_age": 38,
            "supplier_name": "DEAN SHOES",
            "factory_tier": "Tier 1/ATL",
            "product_type": "Footwear",
            "brand": "Nike",
            "special_events": "",
            "country/region": "Vietnam",
            "region": "SE ASIA",
            "geoData": null
        },
        {
            "contractor_id": "VN002015",
            "code": "DJT2 VIE",
            "address": "Lot D 8 1 Road No 2",
            "workers": 361,
            "workers_line": 300,
            "workers_female": 27,
            "workers_migrant": 7,
            "lat": 14.058324,
            "lon": 108.277199,
            "name": "DONGJIN TEXTILE VINA Co., Ltd ",
            "city": "Dong Nai Province",
            "state": "Ðng Nai",
            "postal_code": "76000",
            "average_worker_age": 33,
            "supplier_name": "DONGJIN",
            "factory_tier": "Tier 2/BTL",
            "product_type": "Footwear",
            "brand": "Nike",
            "special_events": "",
            "country/region": "Vietnam",
            "region": "SE ASIA",
            "geoData": null
        },
        {
            "contractor_id": "VN000644",
            "code": "TPL VIE",
            "address": "Lot 30 32 34 No3 Road Tan Tao Industrial Park",
            "workers": 3371,
            "workers_line": 2781,
            "workers_female": 53,
            "workers_migrant": 0,
            "lat": 10.743,
            "lon": 106.595,
            "name": "PAIHO (VIETNAM)",
            "city": "Ho Chi Minh City",
            "state": "Ho Chi Minh",
            "postal_code": "71909",
            "average_worker_age": 31,
            "supplier_name": "PAIHO GROUP",
            "factory_tier": "Tier 2/BTL",
            "product_type": "Footwear",
            "brand": "Nike",
            "special_events": "",
            "country/region": "Vietnam",
            "region": "SE ASIA",
            "geoData": null
        },
        {
            "contractor_id": "VN000785",
            "code": "503.4 VIE",
            "address": "NO 50 ROAD 3 VSIP II HOA PHU PRECINCT",
            "workers": 343,
            "workers_line": 329,
            "workers_female": 11,
            "workers_migrant": 0,
            "lat": 11.078608,
            "lon": 106.676889,
            "name": "BAIKSAN (VIETNAM)",
            "city": "Binh Duong",
            "state": "Bình Duong",
            "postal_code": "840000",
            "average_worker_age": 31,
            "supplier_name": "BAIKSAN",
            "factory_tier": "Tier 2/BTL",
            "product_type": "Footwear",
            "brand": "Nike",
            "special_events": "",
            "country/region": "Vietnam",
            "region": "SE ASIA",
            "geoData": null
        },
        {
            "contractor_id": "VN001346",
            "code": "FTC2 VIE",
            "address": "Nhon Trach 3 Ind Zone Hiep Phuoc Town",
            "workers": 1127,
            "workers_line": 988,
            "workers_female": 53,
            "workers_migrant": 6,
            "lat": 10.720867,
            "lon": 106.919309,
            "name": "FORMOSA TAFFETA DONG NAI CO., LTD.",
            "city": "Nhon Trach District",
            "state": "Ðng Nai",
            "postal_code": "71000",
            "average_worker_age": 31,
            "supplier_name": "FORMOSA TAFFETA",
            "factory_tier": "Tier 2/BTL",
            "product_type": "Apparel",
            "brand": "Nike",
            "special_events": "",
            "country/region": "Vietnam",
            "region": "SE ASIA",
            "geoData": null
        },
        {
            "contractor_id": "VN001443",
            "code": "VN001443",
            "address": "Group 7  An Dien 1 Hamlet",
            "workers": 2123,
            "workers_line": 1984,
            "workers_female": 78,
            "workers_migrant": 0,
            "lat": 10.07995,
            "lon": 106.1707,
            "name": "BUSINESS LOCATION IN VUNG LIEM - TY XUAN COMPANY LIMITED",
            "city": "Vinh Long",
            "state": "Vinh Long",
            "postal_code": "85000",
            "average_worker_age": 32,
            "supplier_name": "LAI YIH",
            "factory_tier": "Tier 1/ATL",
            "product_type": "Footwear",
            "brand": "Converse",
            "special_events": "",
            "country/region": "Vietnam",
            "region": "SE ASIA",
            "geoData": null
        },
        {
            "contractor_id": "VN003236",
            "code": "VN003236",
            "address": "Lot 6 Str 3 Giang Dien Industrial Zone Trang Bom Dong Nai",
            "workers": 105,
            "workers_line": 44,
            "workers_female": 0,
            "workers_migrant": 0,
            "lat": 10.902727,
            "lon": 106.99128,
            "name": "DONG SHIN VINA CO.,LTD",
            "city": "Trang Bom",
            "state": "Ðng Nai",
            "postal_code": "76317",
            "average_worker_age": 33,
            "supplier_name": "DONG SHIN GLOBAL MARKETING TECHNOLOGY",
            "factory_tier": "Tier 1/ATL",
            "product_type": "Footwear",
            "brand": "Nike",
            "special_events": "Collegiate",
            "country/region": "Vietnam",
            "region": "SE ASIA",
            "geoData": null
        },
        {
            "contractor_id": "VN000554",
            "code": "VIN VIE",
            "address": "Hoa Phu Industrial Zone",
            "workers": 9150,
            "workers_line": 7407,
            "workers_female": 72,
            "workers_migrant": 0,
            "lat": 10.16038,
            "lon": 105.94061,
            "name": "VINH LONG FOOTWEAR CO., LTD.",
            "city": "VINH LONG",
            "state": "Vinh Long",
            "postal_code": "85000",
            "average_worker_age": 33,
            "supplier_name": "LAI YIH",
            "factory_tier": "Tier 1/ATL",
            "product_type": "Footwear",
            "brand": "Converse",
            "special_events": "",
            "country/region": "Vietnam",
            "region": "SE ASIA",
            "geoData": null
        },
        {
            "contractor_id": "VN000454",
            "code": "SIV VIE",
            "address": "27 Mac Van Thanh Street",
            "workers": 1184,
            "workers_line": 1015,
            "workers_female": 85,
            "workers_migrant": 0,
            "lat": 10.36667,
            "lon": 106.66666,
            "name": "CONG TIEN GARMENT JOINT STOCK COMPANY",
            "city": "Long Thuan Ward",
            "state": "Ðng Tháp",
            "postal_code": "084",
            "average_worker_age": 30,
            "supplier_name": "SOUTH ISLAND",
            "factory_tier": "Tier 1/ATL",
            "product_type": "Apparel",
            "brand": "Nike",
            "special_events": "Collegiate",
            "country/region": "Vietnam",
            "region": "SE ASIA",
            "geoData": null
        },
        {
            "contractor_id": "VN000167",
            "code": "FGXT VIE",
            "address": "Hamlet 1, Xuan Tay Commune, Cam My District, Dong Nai Pro",
            "workers": 686,
            "workers_line": 598,
            "workers_female": 89,
            "workers_migrant": 0,
            "lat": 10.81362,
            "lon": 107.3594,
            "name": "Fashion Garments 2 Co., Ltd - Xuan Tay",
            "city": "Cam My District",
            "state": "Ðng Nai",
            "postal_code": "810000",
            "average_worker_age": 33,
            "supplier_name": "HIRDARAMANI",
            "factory_tier": "Tier 1/ATL",
            "product_type": "Apparel",
            "brand": "Nike",
            "special_events": "",
            "country/region": "Vietnam",
            "region": "SE ASIA",
            "geoData": null
        },
        {
            "contractor_id": "VN000743",
            "code": "VN000743",
            "address": "Chau Duc Industrial Zone",
            "workers": 2640,
            "workers_line": 2556,
            "workers_female": 73,
            "workers_migrant": 0,
            "lat": 10.58171,
            "lon": 107.17812,
            "name": "Vung Tau Orient Co., Ltd - unit 02",
            "city": "Chau Duc District",
            "state": "Bà Ra - Vung Tàu",
            "postal_code": "79000",
            "average_worker_age": 34,
            "supplier_name": "FENG TAY AC",
            "factory_tier": "Tier 1/ATL",
            "product_type": "Equipment",
            "brand": "Nike",
            "special_events": "Collegiate",
            "country/region": "Vietnam",
            "region": "SE ASIA",
            "geoData": null
        },
        {
            "contractor_id": "VN401091",
            "code": "TLA VIE",
            "address": "Hamlet 3 Long Cang Commune Can Duoc Dist Long An Province",
            "workers": 2440,
            "workers_line": 1963,
            "workers_female": 62,
            "workers_migrant": 0,
            "lat": 10.57078,
            "lon": 106.51708,
            "name": "Branch of Thuan Phuong Embroideries Garments Company Limited - Thuan Phuong Long An Factory",
            "city": "Can Duoc",
            "state": "Long An",
            "postal_code": "850000",
            "average_worker_age": 32,
            "supplier_name": "THUAN PHUONG",
            "factory_tier": "Tier 1/ATL",
            "product_type": "Apparel",
            "brand": "Nike",
            "special_events": "",
            "country/region": "Vietnam",
            "region": "SE ASIA",
            "geoData": null
        },
        {
            "contractor_id": "VN000353",
            "code": "NIV VIE",
            "address": "Hoa Phu Commune Cu Chi District",
            "workers": 7951,
            "workers_line": 6905,
            "workers_female": 83,
            "workers_migrant": 0,
            "lat": 10.96731,
            "lon": 106.62028,
            "name": "Worldon Vietnam Co., Ltd.",
            "city": "Ho Chi Minh",
            "state": "Ho Chi Minh",
            "postal_code": "70000",
            "average_worker_age": 28,
            "supplier_name": "SHENZHOU",
            "factory_tier": "Tier 1/ATL",
            "product_type": "Apparel",
            "brand": "Nike",
            "special_events": "Collegiate",
            "country/region": "Vietnam",
            "region": "SE ASIA",
            "geoData": null
        },
        {
            "contractor_id": "VN000568",
            "code": "VTP VIE",
            "address": "275 Nguyen Van Luong St Dist 6 HCMC",
            "workers": 1263,
            "workers_line": 978,
            "workers_female": 51,
            "workers_migrant": 0,
            "lat": 10.83865,
            "lon": 106.67116,
            "name": "Thuan Phuong Embroideries Garments Co., Ltd.",
            "city": "Ho Chi Minh City",
            "state": "Ho Chi Minh",
            "postal_code": "700000",
            "average_worker_age": 28,
            "supplier_name": "THUAN PHUONG",
            "factory_tier": "Tier 1/ATL",
            "product_type": "Apparel",
            "brand": "Nike",
            "special_events": "",
            "country/region": "Vietnam",
            "region": "SE ASIA",
            "geoData": null
        },
        {
            "contractor_id": "VN000626",
            "code": "NVC VIE",
            "address": "Lot C1 Binh Hoa Industrial Zone Chau Thanh An Giang",
            "workers": 2008,
            "workers_line": 1627,
            "workers_female": 78,
            "workers_migrant": 2,
            "lat": 10.45488,
            "lon": 105.34314,
            "name": "NV Apparel Company Limited",
            "city": "An Giang",
            "state": "An Giang",
            "postal_code": "880000",
            "average_worker_age": 30,
            "supplier_name": "NICE APPAREL",
            "factory_tier": "Tier 1/ATL",
            "product_type": "Apparel",
            "brand": "Nike",
            "special_events": "Collegiate",
            "country/region": "Vietnam",
            "region": "SE ASIA",
            "geoData": null
        },
        {
            "contractor_id": "VN000879",
            "code": "ECL VIE",
            "address": "My Xuan A2 Industrial Zone",
            "workers": 844,
            "workers_line": 556,
            "workers_female": 48,
            "workers_migrant": 0,
            "lat": 10.62844,
            "lon": 107.03483,
            "name": "ECLAT FABRIC CO., LTD.",
            "city": "Ba Ria-Vung Tau",
            "state": "Bà Ra - Vung Tàu",
            "postal_code": "79000",
            "average_worker_age": 29,
            "supplier_name": "ECLAT",
            "factory_tier": "Tier 2/BTL",
            "product_type": "Apparel",
            "brand": "Nike",
            "special_events": "",
            "country/region": "Vietnam",
            "region": "SE ASIA",
            "geoData": null
        },
        {
            "contractor_id": "VN002002",
            "code": "VN002002",
            "address": "Factory 02 and 03  Lot 19 Road 15B Tan Duc Industrial Park",
            "workers": 155,
            "workers_line": 54,
            "workers_female": 20,
            "workers_migrant": 0,
            "lat": 10.785377,
            "lon": 106.453149,
            "name": "COSMO VIETNAM CO.,LTD",
            "city": "Duc Hoa Dist",
            "state": "Long An",
            "postal_code": "82724",
            "average_worker_age": 31,
            "supplier_name": "COSMOPOLITAN TEXTILE",
            "factory_tier": "Tier 2/BTL",
            "product_type": "Footwear",
            "brand": "Converse",
            "special_events": "",
            "country/region": "Vietnam",
            "region": "SE ASIA",
            "geoData": null
        },
        {
            "contractor_id": "VN002571",
            "code": "VN002571",
            "address": "Part of Lot I bar 3 St No 7",
            "workers": 641,
            "workers_line": 454,
            "workers_female": 63,
            "workers_migrant": 2,
            "lat": 10.825081,
            "lon": 106.594745,
            "name": "UN-AVAILABLE CO. LTD",
            "city": "Ho Chi Minh",
            "state": "Ho Chi Minh",
            "postal_code": "71914",
            "average_worker_age": 33,
            "supplier_name": "UN AVAILABLE",
            "factory_tier": "Tier 1/ATL",
            "product_type": "Apparel",
            "brand": "Nike",
            "special_events": "",
            "country/region": "Vietnam",
            "region": "SE ASIA",
            "geoData": null
        },
        {
            "contractor_id": "VN000671",
            "code": "VN000671",
            "address": "No 120 Road No 14",
            "workers": 3116,
            "workers_line": 2749,
            "workers_female": 72,
            "workers_migrant": 0,
            "lat": 20.911157,
            "lon": 106.72006,
            "name": "MAPLE COMPANY LIMITED",
            "city": "Hai Phong City",
            "state": "Hai Phong",
            "postal_code": "04000",
            "average_worker_age": 32,
            "supplier_name": "RAMATEX",
            "factory_tier": "Tier 1/ATL",
            "product_type": "Apparel",
            "brand": "Nike",
            "special_events": "",
            "country/region": "Vietnam",
            "region": "SE ASIA",
            "geoData": null
        },
        {
            "contractor_id": "VN001474",
            "code": "VN001474",
            "address": "Lot H An Nghiep Industrial Zone An Ninh Commune",
            "workers": 1121,
            "workers_line": 826,
            "workers_female": 75,
            "workers_migrant": 0,
            "lat": 10.637279,
            "lon": 106.747424,
            "name": "LUCKYTEX SOC TRANG VIETNAM CO., LTD",
            "city": "Can Tho",
            "state": "Sóc Trang",
            "postal_code": "940000",
            "average_worker_age": 30,
            "supplier_name": "TUNTEX",
            "factory_tier": "Tier 1/ATL",
            "product_type": "Apparel",
            "brand": "Nike",
            "special_events": "Collegiate",
            "country/region": "Vietnam",
            "region": "SE ASIA",
            "geoData": null
        },
        {
            "contractor_id": "VN000706",
            "code": "VN000706",
            "address": "Lot E1 E2 Minh Hung Korea Industrial Park",
            "workers": 1922,
            "workers_line": 1745,
            "workers_female": 77,
            "workers_migrant": 0,
            "lat": 11.488055,
            "lon": 106.618888,
            "name": "TKG TAEKWNG BINH PHUOC COMPANY LIMITED",
            "city": "Chon Than Townlet",
            "state": "Bình Phuc",
            "postal_code": "83000",
            "average_worker_age": 32,
            "supplier_name": "TAEKWANG",
            "factory_tier": "Tier 2/ATL",
            "product_type": "Footwear",
            "brand": "Nike",
            "special_events": "",
            "country/region": "Vietnam",
            "region": "SE ASIA",
            "geoData": null
        },
        {
            "contractor_id": "VN001275",
            "code": "79.2 VIE",
            "address": "LOT A6 1 4 THANH THANH CONG IP AN HOA WARD",
            "workers": 1017,
            "workers_line": 821,
            "workers_female": 36,
            "workers_migrant": 0,
            "lat": 11.029091,
            "lon": 106.316493,
            "name": "YOUNGIL (VIETNAM)",
            "city": "TRANG BANG",
            "state": "Tây Ninh",
            "postal_code": "80900",
            "average_worker_age": 34,
            "supplier_name": "YOUNGIL LEATHER",
            "factory_tier": "Tier 2/BTL",
            "product_type": "Footwear",
            "brand": "Nike",
            "special_events": "",
            "country/region": "Vietnam",
            "region": "SE ASIA",
            "geoData": null
        },
        {
            "contractor_id": "VN401121",
            "code": "SHV VIE",
            "address": "Industrial Cluster in Nghia Thai Commune",
            "workers": 1915,
            "workers_line": 1770,
            "workers_female": 80,
            "workers_migrant": 0,
            "lat": 20.44712,
            "lon": 106.17274,
            "name": "Song Hong Garment JSC - Nghia Hung Branch: Factory 15,16,17,18",
            "city": "Nam Dinh/ Nam Dinh",
            "state": "Nam Ðnh",
            "postal_code": "420000",
            "average_worker_age": 25,
            "supplier_name": "SONG HONG",
            "factory_tier": "Tier 1/ATL",
            "product_type": "Apparel",
            "brand": "Nike",
            "special_events": "",
            "country/region": "Vietnam",
            "region": "SE ASIA",
            "geoData": null
        },
        {
            "contractor_id": "VN002986",
            "code": "VN002986",
            "address": "Unit G1 B Que Vo Industrial Zone",
            "workers": 1146,
            "workers_line": 1089,
            "workers_female": 0,
            "workers_migrant": 2,
            "lat": 21.13773,
            "lon": 106.181619,
            "name": "Maxturn Apparel Company Limited",
            "city": "Bac Ninh",
            "state": "Bc Ninh",
            "postal_code": "16000",
            "average_worker_age": 36,
            "supplier_name": "MAXTURN APPAREL",
            "factory_tier": "Tier 1/ATL",
            "product_type": "Apparel",
            "brand": "Nike",
            "special_events": "",
            "country/region": "Vietnam",
            "region": "SE ASIA",
            "geoData": null
        },
        {
            "contractor_id": "VN001331",
            "code": "VN001331",
            "address": "Bac Giao Cu Trung Hamlet Dong Son Commune Nam Truc District",
            "workers": 2675,
            "workers_line": 2449,
            "workers_female": 94,
            "workers_migrant": 0,
            "lat": 20.4339,
            "lon": 106.177,
            "name": "TMVN MANUFACTURING CO.,LTD.",
            "city": "Nam Dinh",
            "state": "Nam Ðnh",
            "postal_code": "07000",
            "average_worker_age": 34,
            "supplier_name": "TP INC",
            "factory_tier": "Tier 1/ATL",
            "product_type": "Apparel",
            "brand": "Nike",
            "special_events": "",
            "country/region": "Vietnam",
            "region": "SE ASIA",
            "geoData": null
        },
        {
            "contractor_id": "VN000502",
            "code": "TBC VIE",
            "address": "191 Dinh Duc Thien Street",
            "workers": 742,
            "workers_line": 697,
            "workers_female": 77,
            "workers_migrant": 0,
            "lat": 10.65763,
            "lon": 106.58194,
            "name": "Business Location of MDK Embroideries Garments Company Limited - Binh Chanh Factory",
            "city": "Binh Chanh District",
            "state": "Ho Chi Minh",
            "postal_code": "700000",
            "average_worker_age": 34,
            "supplier_name": "THUAN PHUONG",
            "factory_tier": "Tier 1/ATL",
            "product_type": "Apparel",
            "brand": "Nike",
            "special_events": "",
            "country/region": "Vietnam",
            "region": "SE ASIA",
            "geoData": null
        },
        {
            "contractor_id": "VN001508",
            "code": "VND2 VIE",
            "address": "Road 25B Nhon Trach 2 Industrial Zone",
            "workers": 743,
            "workers_line": 550,
            "workers_female": 67,
            "workers_migrant": 0,
            "lat": 10.729666,
            "lon": 106.9143,
            "name": "Gold Long John (Vietnam 2nd location)",
            "city": "Nhon Trach",
            "state": "Ðng Nai",
            "postal_code": "815956",
            "average_worker_age": 32,
            "supplier_name": "GOLD LONG JOHN",
            "factory_tier": "Tier 2/ATL",
            "product_type": "Footwear",
            "brand": "Nike",
            "special_events": "",
            "country/region": "Vietnam",
            "region": "SE ASIA",
            "geoData": null
        },
        {
            "contractor_id": "VN003234",
            "code": "VN003234",
            "address": " Lot CN 04 South Zone A Bim Son Industrial park Bac Son Ward",
            "workers": 1223,
            "workers_line": 992,
            "workers_female": 0,
            "workers_migrant": 0,
            "lat": 20.09985,
            "lon": 105.84355,
            "name": "LEADING STAR THANH HOA GARMENT COMPANY LIMITED",
            "city": "Bim Son",
            "state": "Thanh Hóa",
            "postal_code": "44000",
            "average_worker_age": 29,
            "supplier_name": "LEADING STAR",
            "factory_tier": "Tier 1/ATL",
            "product_type": "Apparel",
            "brand": "Nike",
            "special_events": "",
            "country/region": "Vietnam",
            "region": "SE ASIA",
            "geoData": null
        },
        {
            "contractor_id": "VN000210",
            "code": "HLV VIE",
            "address": "Lot D 11 CN My Phuoc 2 IP My Phuoc Ward",
            "workers": 1050,
            "workers_line": 1000,
            "workers_female": 80,
            "workers_migrant": 0,
            "lat": 11.09454,
            "lon": 106.64272,
            "name": "H&L APPAREL(VIETNAM) CO.,LTD",
            "city": "Ben Cat District",
            "state": "Bình Duong",
            "postal_code": "590000",
            "average_worker_age": 25,
            "supplier_name": "H&L",
            "factory_tier": "Tier 1/ATL",
            "product_type": "Apparel",
            "brand": "Nike",
            "special_events": "",
            "country/region": "Vietnam",
            "region": "SE ASIA",
            "geoData": null
        },
        {
            "contractor_id": "VN003283",
            "code": "VN003283",
            "address": " Factory Unit 3  Block 2A Phase 1,Pho Yen,Thái Nguyên,24722",
            "workers": 157,
            "workers_line": 142,
            "workers_female": 0,
            "workers_migrant": 11,
            "lat": 21.422378,
            "lon": 105.901211,
            "name": "OUTLOOK INTERNATIONAL GROUP (VIETNAM) COMPANY LIMITED",
            "city": "Pho Yen",
            "state": "Thái Nguyên",
            "postal_code": "24722",
            "average_worker_age": 31,
            "supplier_name": "WENZHOU OUTLOOK",
            "factory_tier": "Tier 1/ATL",
            "product_type": "Equipment",
            "brand": "Nike",
            "special_events": "",
            "country/region": "Vietnam",
            "region": "SE ASIA",
            "geoData": null
        },
        {
            "contractor_id": "VN000732",
            "code": "VN000732",
            "address": "Factory 7, DE1B & DE1 St., My Phuoc 3 Industrial Park,",
            "workers": 58,
            "workers_line": 50,
            "workers_female": 85,
            "workers_migrant": 6,
            "lat": 11.19698,
            "lon": 106.70805,
            "name": "MANUFACTURE OF ARTISTIC BELT & ACCESSORIES CO., LTD.",
            "city": "Ben Cat Town",
            "state": "Bình Duong",
            "postal_code": "82575",
            "average_worker_age": 33,
            "supplier_name": "ARTISTIC BELT AND ACCESSORIES",
            "factory_tier": "Tier 1/ATL",
            "product_type": "Equipment",
            "brand": "Nike",
            "special_events": "",
            "country/region": "Vietnam",
            "region": "SE ASIA",
            "geoData": null
        },
        {
            "contractor_id": "VN000653",
            "code": "RMV VIE",
            "address": "No 9 East  West Street VSIP Hai Phong ",
            "workers": 2281,
            "workers_line": 2215,
            "workers_female": 71,
            "workers_migrant": 0,
            "lat": 20.87511,
            "lon": 106.65362,
            "name": "Regina Miracle International Vietnam Co., Ltd",
            "city": "Hai Phong",
            "state": "Hai Phong",
            "postal_code": "18000",
            "average_worker_age": 28,
            "supplier_name": "REGINA MIRACLE",
            "factory_tier": "Tier 1/ATL",
            "product_type": "Apparel",
            "brand": "Nike",
            "special_events": "Collegiate",
            "country/region": "Vietnam",
            "region": "SE ASIA",
            "geoData": null
        },
        {
            "contractor_id": "VN002999",
            "code": "VN002999",
            "address": "LOT D1 ROAD D4 DONG NAM IP HOA PHU COMMUNE CU CHI DISTRICT",
            "workers": 1044,
            "workers_line": 954,
            "workers_female": 0,
            "workers_migrant": 0,
            "lat": 10.967852,
            "lon": 106.620212,
            "name": "Worldon Vietnam Co., Ltd. (Flyknit)",
            "city": "HO CHI MINH CITY",
            "state": "Ho Chi Minh",
            "postal_code": "700000",
            "average_worker_age": 26,
            "supplier_name": "SHENZHOU",
            "factory_tier": "Tier 2/ATL",
            "product_type": "Footwear",
            "brand": "Nike",
            "special_events": "",
            "country/region": "Vietnam",
            "region": "SE ASIA",
            "geoData": null
        },
        {
            "contractor_id": "VN000071",
            "code": "CVT VIE",
            "address": "5A RD NHON TRACH 2 INDUSTRIAL ZONE NHON TRACH DIST",
            "workers": 5047,
            "workers_line": 4528,
            "workers_female": 90,
            "workers_migrant": 0,
            "lat": 10.72299,
            "lon": 106.9229,
            "name": "ECLAT TEXTILE CO., LTD. (VIETNAM)",
            "city": "Nhon Trach",
            "state": "Ðng Nai",
            "postal_code": "810000",
            "average_worker_age": 29,
            "supplier_name": "ECLAT",
            "factory_tier": "Tier 1/ATL",
            "product_type": "Apparel",
            "brand": "Nike",
            "special_events": "Collegiate",
            "country/region": "Vietnam",
            "region": "SE ASIA",
            "geoData": null
        },
        {
            "contractor_id": "VN000684",
            "code": "EDP VIE",
            "address": "No 32  VSIP II A Street 31",
            "workers": 432,
            "workers_line": 399,
            "workers_female": 79,
            "workers_migrant": 0,
            "lat": 11.05772,
            "lon": 106.727597,
            "name": "Acode Sporting Goods Co., Ltd.",
            "city": "Bac Tan Uyen",
            "state": "Bình Duong",
            "postal_code": "822710",
            "average_worker_age": 31,
            "supplier_name": "EXCELLENCE SPORTING GOODS",
            "factory_tier": "Tier 1/ATL",
            "product_type": "Equipment",
            "brand": "Nike",
            "special_events": "",
            "country/region": "Vietnam",
            "region": "SE ASIA",
            "geoData": null
        },
        {
            "contractor_id": "VN000618",
            "code": "EDV VIE",
            "address": "Phu Kim Village Cat Trinh Commune",
            "workers": 3695,
            "workers_line": 2692,
            "workers_female": 75,
            "workers_migrant": 0,
            "lat": 14.0116,
            "lon": 109.0731,
            "name": "Delta Galil Vietnam Co., Ltd",
            "city": "Phu Cat",
            "state": "Bình Ðnh",
            "postal_code": "55000",
            "average_worker_age": 32,
            "supplier_name": "DELTA EQ GROUP",
            "factory_tier": "Tier 1/ATL",
            "product_type": "Apparel",
            "brand": "Nike",
            "special_events": "Collegiate",
            "country/region": "Vietnam",
            "region": "SE ASIA",
            "geoData": null
        },
        {
            "contractor_id": "VN000311",
            "code": "MDK1 VIE",
            "address": "09 09A To Ky Str Trung My Tay Ward Dist 12",
            "workers": 1002,
            "workers_line": 834,
            "workers_female": 72,
            "workers_migrant": 0,
            "lat": 10.86447,
            "lon": 106.6162,
            "name": "MDK Embroideries Garments Co., Ltd",
            "city": "Ho Chi Minh City",
            "state": "Ho Chi Minh",
            "postal_code": "70000",
            "average_worker_age": 31,
            "supplier_name": "THUAN PHUONG",
            "factory_tier": "Tier 1/ATL",
            "product_type": "Apparel",
            "brand": "Nike",
            "special_events": "",
            "country/region": "Vietnam",
            "region": "SE ASIA",
            "geoData": null
        },
        {
            "contractor_id": "VN002512",
            "code": "VN002512",
            "address": "AV AVI GIAO LONG INDUSTRIAL PARK II AN PHUOC COMMUNE",
            "workers": 842,
            "workers_line": 798,
            "workers_female": 75,
            "workers_migrant": 1,
            "lat": 10.29564,
            "lon": 106.4068,
            "name": "SIGMA VIETNAM INDUSTRIAL CO.,LTD",
            "city": "BENTRE",
            "state": "Bn Tre",
            "postal_code": "86000",
            "average_worker_age": 25,
            "supplier_name": "SIGMA",
            "factory_tier": "Tier 1/ATL",
            "product_type": "Equipment",
            "brand": "Nike",
            "special_events": "",
            "country/region": "Vietnam",
            "region": "SE ASIA",
            "geoData": null
        },
        {
            "contractor_id": "VN000746",
            "code": "VN000746",
            "address": "Lot 28 Road No7 Trang Bang Industrial Park",
            "workers": 2133,
            "workers_line": 2010,
            "workers_female": 90,
            "workers_migrant": 0,
            "lat": 11.020806,
            "lon": 106.381944,
            "name": "Colltex Garment Mfy Co., Ltd.(VN)",
            "city": "Trang Bang",
            "state": "Tây Ninh",
            "postal_code": "843440",
            "average_worker_age": 30,
            "supplier_name": "ECLAT",
            "factory_tier": "Tier 1/ATL",
            "product_type": "Apparel",
            "brand": "Nike",
            "special_events": "Collegiate",
            "country/region": "Vietnam",
            "region": "SE ASIA",
            "geoData": null
        },
        {
            "contractor_id": "VN000148",
            "code": "EVO VIE",
            "address": "11 Road Dong Xuyen Industrial Zone Ward Rach Dua",
            "workers": 1326,
            "workers_line": 1268,
            "workers_female": 61,
            "workers_migrant": 0,
            "lat": 10.405748,
            "lon": 107.11589,
            "name": "Vung Tau Orient Co., Ltd",
            "city": "Vung Tau",
            "state": "Bà Ra - Vung Tàu",
            "postal_code": "78000",
            "average_worker_age": 36,
            "supplier_name": "FENG TAY AC",
            "factory_tier": "Tier 1/ATL",
            "product_type": "Equipment",
            "brand": "Nike",
            "special_events": "Collegiate",
            "country/region": "Vietnam",
            "region": "SE ASIA",
            "geoData": null
        },
        {
            "contractor_id": "VN000552",
            "code": "VH VIE",
            "address": "Thuan Dao Ind Park",
            "workers": 16387,
            "workers_line": 13719,
            "workers_female": 80,
            "workers_migrant": 0,
            "lat": 10.62383,
            "lon": 106.49075,
            "name": "VIETNAM CHINGLUH SHOES CO. Ltd.",
            "city": "Ben Luc",
            "state": "Long An",
            "postal_code": "700000",
            "average_worker_age": 39,
            "supplier_name": "CHING LUH",
            "factory_tier": "Tier 1/ATL",
            "product_type": "Footwear",
            "brand": "Nike",
            "special_events": "Collegiate",
            "country/region": "Vietnam",
            "region": "SE ASIA",
            "geoData": null
        },
        {
            "contractor_id": "VN001368",
            "code": "VN001368",
            "address": "LOT G2 G8",
            "workers": 1070,
            "workers_line": 898,
            "workers_female": 66,
            "workers_migrant": 0,
            "lat": 10.035969,
            "lon": 105.829135,
            "name": "Vietnam Chingluh Shoes Co., Ltd - Vinh Long Branch",
            "city": "VINH LONG",
            "state": "Vinh Long",
            "postal_code": "89000",
            "average_worker_age": 30,
            "supplier_name": "CHING LUH",
            "factory_tier": "Tier 1/ATL",
            "product_type": "Footwear",
            "brand": "Nike",
            "special_events": "",
            "country/region": "Vietnam",
            "region": "SE ASIA",
            "geoData": null
        },
        {
            "contractor_id": "VN001367",
            "code": "VN001367",
            "address": "LO IV II TAN PHU INDUSTRIAL ZONE",
            "workers": 3311,
            "workers_line": 2962,
            "workers_female": 93,
            "workers_migrant": 0,
            "lat": 11.1619,
            "lon": 107.2612,
            "name": "CHANG SHIN DONG NAI COMPANY LTD",
            "city": "Dong Nai",
            "state": "Ðng Nai",
            "postal_code": "76000",
            "average_worker_age": 31,
            "supplier_name": "CHANGSHIN",
            "factory_tier": "Tier 1/ATL",
            "product_type": "Footwear",
            "brand": "Nike",
            "special_events": "",
            "country/region": "Vietnam",
            "region": "SE ASIA",
            "geoData": null
        },
        {
            "contractor_id": "VN001507",
            "code": "VN001507",
            "address": "Thanh Thanh Cong Industrial Zone",
            "workers": 494,
            "workers_line": 425,
            "workers_female": 40,
            "workers_migrant": 0,
            "lat": 11.02416667,
            "lon": 106.31361,
            "name": "KUO YUEN (VIETNAM) TAY NINH",
            "city": "Trang Bang",
            "state": "Tây Ninh",
            "postal_code": "840000",
            "average_worker_age": 37,
            "supplier_name": "KUO YUEN",
            "factory_tier": "Tier 2/BTL",
            "product_type": "Footwear",
            "brand": "Nike",
            "special_events": "",
            "country/region": "Vietnam",
            "region": "SE ASIA",
            "geoData": null
        },
        {
            "contractor_id": "VN002411",
            "code": "VN002411",
            "address": "Road No 6 Nhon Trach 6 Industrial Park",
            "workers": 993,
            "workers_line": 534,
            "workers_female": 0,
            "workers_migrant": 36,
            "lat": 10.6992,
            "lon": 106.948,
            "name": "HUA FENG (VIETNAM)",
            "city": "Phuoc An",
            "state": "Ðng Nai",
            "postal_code": "76276",
            "average_worker_age": 30,
            "supplier_name": "HUA FENG TEXTILE",
            "factory_tier": "Tier 2/BTL",
            "product_type": "Footwear",
            "brand": "Nike",
            "special_events": "",
            "country/region": "Vietnam",
            "region": "SE ASIA",
            "geoData": null
        },
        {
            "contractor_id": "VN001450",
            "code": "VN001450",
            "address": "Lot B5 1 Road D11",
            "workers": 605,
            "workers_line": 460,
            "workers_female": 55,
            "workers_migrant": 8,
            "lat": 11.019166,
            "lon": 106.319005,
            "name": "WILSON (VIETNAM) LTD",
            "city": "Trang Bang",
            "state": "Tây Ninh",
            "postal_code": "840000",
            "average_worker_age": 27,
            "supplier_name": "WILSON GARMENT",
            "factory_tier": "Tier 2/ATL",
            "product_type": "Apparel",
            "brand": "Nike",
            "special_events": "",
            "country/region": "Vietnam",
            "region": "SE ASIA",
            "geoData": null
        },
        {
            "contractor_id": "VN000551",
            "code": "VG VIE",
            "address": "THUAN HOA HAMLET TRUONG MIT COMMUNE",
            "workers": 6591,
            "workers_line": 4941,
            "workers_female": 72,
            "workers_migrant": 0,
            "lat": 11.35959,
            "lon": 106.27575,
            "name": "CAN SPORTS VIETNAM CO., LTD",
            "city": "Tay Ninh",
            "state": "Tây Ninh",
            "postal_code": "730000",
            "average_worker_age": 36,
            "supplier_name": "SPORTS GEAR",
            "factory_tier": "Tier 1/ATL",
            "product_type": "Footwear",
            "brand": "Nike",
            "special_events": "",
            "country/region": "Vietnam",
            "region": "SE ASIA",
            "geoData": null
        },
        {
            "contractor_id": "VN002819",
            "code": "VN002819",
            "address": "Lot 24 Road No6 Trang Bang Industrial Park",
            "workers": 574,
            "workers_line": 501,
            "workers_female": 50,
            "workers_migrant": 1,
            "lat": 11.33516,
            "lon": 106.10989,
            "name": "TREMON SPORTING GOODS ENTERPRISE CO.,LTD (A STRIKER)",
            "city": "Tay Ninh",
            "state": "Tây Ninh",
            "postal_code": "80000",
            "average_worker_age": 26,
            "supplier_name": "TREMON",
            "factory_tier": "Tier 1/ATL",
            "product_type": "Equipment",
            "brand": "Nike",
            "special_events": "",
            "country/region": "Vietnam",
            "region": "SE ASIA",
            "geoData": null
        },
        {
            "contractor_id": "VN001503",
            "code": "VN001503",
            "address": "Lot A4 Dat Cuoc Industrial Dat Cuoc ward",
            "workers": 192,
            "workers_line": 137,
            "workers_female": 39,
            "workers_migrant": 7,
            "lat": 11.09374,
            "lon": 106.83495,
            "name": "DUCKSAN CO LTD (Vietnam)",
            "city": "Bac Tan Uyen",
            "state": "Bình Duong",
            "postal_code": "590000",
            "average_worker_age": 29,
            "supplier_name": "DUCKSAN",
            "factory_tier": "Tier 2/BTL",
            "product_type": "Footwear",
            "brand": "Nike",
            "special_events": "",
            "country/region": "Vietnam",
            "region": "SE ASIA",
            "geoData": null
        },
        {
            "contractor_id": "VN001379",
            "code": "VN001379",
            "address": "LOT A13 A17",
            "workers": 2334,
            "workers_line": 2209,
            "workers_female": 98,
            "workers_migrant": 0,
            "lat": 14.058324,
            "lon": 108.277199,
            "name": "UNIPAX VI THANH CO., LTD.",
            "city": "Vi Thanh ",
            "state": "Hu Giang",
            "postal_code": "95000",
            "average_worker_age": 29,
            "supplier_name": "HWASEUNG CROWN",
            "factory_tier": "Tier 1/ATL",
            "product_type": "Apparel",
            "brand": "Nike",
            "special_events": "Collegiate",
            "country/region": "Vietnam",
            "region": "SE ASIA",
            "geoData": null
        },
        {
            "contractor_id": "VN000665",
            "code": "VN000665",
            "address": "St 32 12A VSIP II A",
            "workers": 1703,
            "workers_line": 1315,
            "workers_female": 73,
            "workers_migrant": 0,
            "lat": 11.157023,
            "lon": 106.706409,
            "name": "Far Eastern Apparel Limited Vietnam",
            "city": "Binh Duong",
            "state": "Bình Duong",
            "postal_code": "750000",
            "average_worker_age": 31,
            "supplier_name": "FAR EASTERN",
            "factory_tier": "Tier 1/ATL",
            "product_type": "Apparel",
            "brand": "Nike",
            "special_events": "Collegiate",
            "country/region": "Vietnam",
            "region": "SE ASIA",
            "geoData": null
        },
        {
            "contractor_id": "VN000458",
            "code": "SIV31 VIE",
            "address": "Hoa Phuc Hamlet",
            "workers": 1219,
            "workers_line": 1019,
            "workers_female": 69,
            "workers_migrant": 0,
            "lat": 10.34299,
            "lon": 105.98823,
            "name": "Viet Khanh Company Limited",
            "city": "Tien Giang",
            "state": "Tin Giang",
            "postal_code": "860000",
            "average_worker_age": 28,
            "supplier_name": "SOUTH ISLAND",
            "factory_tier": "Tier 1/ATL",
            "product_type": "Apparel",
            "brand": "Nike",
            "special_events": "Collegiate",
            "country/region": "Vietnam",
            "region": "SE ASIA",
            "geoData": null
        },
        {
            "contractor_id": "VN000444",
            "code": "SHG VIE",
            "address": "Industrial Cluster Yen Dinh Town Hai Hau District",
            "workers": 1913,
            "workers_line": 1678,
            "workers_female": 80,
            "workers_migrant": 0,
            "lat": 20.190285,
            "lon": 106.285913,
            "name": "Song Hong Garment JSC - Song Hong 7 Branch: Factory 11,12,13,14",
            "city": "Nam Dinh",
            "state": "Nam Ðnh",
            "postal_code": "428200",
            "average_worker_age": 23,
            "supplier_name": "SONG HONG",
            "factory_tier": "Tier 1/ATL",
            "product_type": "Apparel",
            "brand": "Nike",
            "special_events": "",
            "country/region": "Vietnam",
            "region": "SE ASIA",
            "geoData": null
        },
        {
            "contractor_id": "VN002534",
            "code": "VN002534",
            "address": "Cay Bong Industrial Park La Hien Commune Vo Nhai District",
            "workers": 704,
            "workers_line": 624,
            "workers_female": 75,
            "workers_migrant": 0,
            "lat": 21.697816,
            "lon": 105.914943,
            "name": "Vo Nhai 1 Garment Branch – TNG Investment and Trading JSC",
            "city": "Thai Nguyen",
            "state": "Thái Nguyên",
            "postal_code": "24000",
            "average_worker_age": 30,
            "supplier_name": "VO NHAI 1 GARMENT BRANCH",
            "factory_tier": "Tier 1/ATL",
            "product_type": "Apparel",
            "brand": "Nike",
            "special_events": "",
            "country/region": "Vietnam",
            "region": "SE ASIA",
            "geoData": null
        },
        {
            "contractor_id": "VN001399",
            "code": "VN001399",
            "address": "VSIP 2 A 10 NUMBER 30 STREET",
            "workers": 252,
            "workers_line": 155,
            "workers_female": 0,
            "workers_migrant": 10,
            "lat": 10.962061,
            "lon": 106.718224,
            "name": "LEE BOU INTERNATIONAL BINH DUONG INT'L. CO., LTD",
            "city": "Tan Uyen Town",
            "state": "Bình Duong",
            "postal_code": "590000",
            "average_worker_age": 25,
            "supplier_name": "LEE BOU LABEL ENTERPRISE",
            "factory_tier": "Tier 2/ATL",
            "product_type": "Apparel",
            "brand": "Nike",
            "special_events": "Collegiate",
            "country/region": "Vietnam",
            "region": "SE ASIA",
            "geoData": null
        },
        {
            "contractor_id": "VN000666",
            "code": "VN666 VIE",
            "address": "ROAD No 3 NHON TRACH 2 IZ NHON PHU",
            "workers": 1680,
            "workers_line": 1400,
            "workers_female": 80,
            "workers_migrant": 0,
            "lat": 10.71935,
            "lon": 106.91,
            "name": "BRANCH 1 OF GREENTECH HEADGEAR CO., LTD IN DONG NAI",
            "city": "NHON TRACH",
            "state": "Ðng Nai",
            "postal_code": "810000",
            "average_worker_age": 32,
            "supplier_name": "ASIAN SOURCING HEADWEAR",
            "factory_tier": "Tier 1/ATL",
            "product_type": "Apparel",
            "brand": "Nike",
            "special_events": "Collegiate",
            "country/region": "Vietnam",
            "region": "SE ASIA",
            "geoData": null
        },
        {
            "contractor_id": "VN000452",
            "code": "SIV SIGC VIE",
            "address": "1A Hung Dao Vuong",
            "workers": 1437,
            "workers_line": 1215,
            "workers_female": 73,
            "workers_migrant": 0,
            "lat": 10.258912,
            "lon": 105.950834,
            "name": "VINH TIEN GARMENT JOINT STOCK COMPANY",
            "city": "Vinh Long",
            "state": "Vinh Long",
            "postal_code": "850000",
            "average_worker_age": 32,
            "supplier_name": "SOUTH ISLAND",
            "factory_tier": "Tier 1/ATL",
            "product_type": "Apparel",
            "brand": "Nike",
            "special_events": "Collegiate",
            "country/region": "Vietnam",
            "region": "SE ASIA",
            "geoData": null
        },
        {
            "contractor_id": "VN000555",
            "code": "VJ VIE",
            "address": "Thanh Phu Vinh Cuu Dong Nai",
            "workers": 34190,
            "workers_line": 30898,
            "workers_female": 77,
            "workers_migrant": 0,
            "lat": 11.0185,
            "lon": 106.838,
            "name": "CHANG SHIN VIETNAM COMPANY, LTD.",
            "city": "Dong Nai",
            "state": "Ðng Nai",
            "postal_code": "76000",
            "average_worker_age": 36,
            "supplier_name": "CHANGSHIN",
            "factory_tier": "Tier 1/ATL",
            "product_type": "Footwear",
            "brand": "Nike",
            "special_events": "",
            "country/region": "Vietnam",
            "region": "SE ASIA",
            "geoData": null
        },
        {
            "contractor_id": "VN002407",
            "code": "VN002407",
            "address": "ROAD NO 9 Nhon Trach VI Industrial Park",
            "workers": 305,
            "workers_line": 191,
            "workers_female": 0,
            "workers_migrant": 8,
            "lat": 10.702118,
            "lon": 106.934386,
            "name": "Men-Chuen Viet Nam Co., Ltd. (Nhon Trach VI)",
            "city": "Nhon Trach",
            "state": "Ðng Nai",
            "postal_code": "810000",
            "average_worker_age": 29,
            "supplier_name": "MEN CHUEN",
            "factory_tier": "Tier 2/ATL",
            "product_type": "Apparel",
            "brand": "Nike",
            "special_events": "",
            "country/region": "Vietnam",
            "region": "SE ASIA",
            "geoData": null
        },
        {
            "contractor_id": "VN002506",
            "code": "VN002506",
            "address": "Team 12 Nghia Phong Town Nghia Hung District",
            "workers": 1802,
            "workers_line": 1678,
            "workers_female": 80,
            "workers_migrant": 0,
            "lat": 20.2036,
            "lon": 106.17929,
            "name": "Song Hong - Nghia Hung Garment Joint Stock Company",
            "city": "Nam Dinh",
            "state": "Nam Ðnh",
            "postal_code": "426710",
            "average_worker_age": 22,
            "supplier_name": "SONG HONG NGHIA HUNG COMPANY",
            "factory_tier": "Tier 1/ATL",
            "product_type": "Apparel",
            "brand": "Nike",
            "special_events": "",
            "country/region": "Vietnam",
            "region": "SE ASIA",
            "geoData": null
        },
        {
            "contractor_id": "VN000624",
            "code": "MXP24 VIE",
            "address": "Lot No85 Map No44",
            "workers": 1370,
            "workers_line": 1123,
            "workers_female": 83,
            "workers_migrant": 0,
            "lat": 14.058324,
            "lon": 108.277199,
            "name": "MAXPORT LIMITED VIET NAM NAM DINH BRANCH MAXPORT 05",
            "city": "Nam Dinh",
            "state": "Nam Ðnh",
            "postal_code": "42000",
            "average_worker_age": 38,
            "supplier_name": "MAXPORT",
            "factory_tier": "Tier 1/ATL",
            "product_type": "Apparel",
            "brand": "Nike",
            "special_events": "Collegiate",
            "country/region": "Vietnam",
            "region": "SE ASIA",
            "geoData": null
        },
        {
            "contractor_id": "VN000546",
            "code": "V2 VIE",
            "address": "Tri Yen Hamlet Tan Kim Commune Can Giuoc County",
            "workers": 10728,
            "workers_line": 9539,
            "workers_female": 76,
            "workers_migrant": 0,
            "lat": 10.61377,
            "lon": 106.66193,
            "name": "Fu-Luh Shoes Co., LTD",
            "city": "Long An",
            "state": "Long An",
            "postal_code": "82500",
            "average_worker_age": 35,
            "supplier_name": "CHING LUH",
            "factory_tier": "Tier 1/ATL",
            "product_type": "Footwear",
            "brand": "Nike",
            "special_events": "",
            "country/region": "Vietnam",
            "region": "SE ASIA",
            "geoData": null
        },
        {
            "contractor_id": "VN000070",
            "code": "CSV01 VIE",
            "address": "Lot C Loc An Binh Son Industrial Zone",
            "workers": 5828,
            "workers_line": 5291,
            "workers_female": 89,
            "workers_migrant": 0,
            "lat": 10.79365,
            "lon": 106.98319,
            "name": "CHANG SHIN VIETNAM CO., LTD",
            "city": "Long Thanh District",
            "state": "Ðng Nai",
            "postal_code": "00061",
            "average_worker_age": 37,
            "supplier_name": "CHANGSHIN",
            "factory_tier": "Tier 1/ATL",
            "product_type": "Footwear",
            "brand": "Nike",
            "special_events": "",
            "country/region": "Vietnam",
            "region": "SE ASIA",
            "geoData": null
        },
        {
            "contractor_id": "VN003013",
            "code": "VN003013",
            "address": "Provincial Road 835A  Loc Tien Hamlet  My Loc Commune",
            "workers": 771,
            "workers_line": 724,
            "workers_female": 0,
            "workers_migrant": 0,
            "lat": 10.604279,
            "lon": 106.619644,
            "name": "Thuan Phuong Embroideries Garments Co., Ltd - Binh Chanh Factory 2",
            "city": "Can Giuoc District",
            "state": "Long An",
            "postal_code": "82509",
            "average_worker_age": 33,
            "supplier_name": "THUAN PHUONG EMBROIDERIES GARMENTS CO., LTD - BINH CHANH FACTORY 2",
            "factory_tier": "Tier 1/ATL",
            "product_type": "Apparel",
            "brand": "Nike",
            "special_events": "",
            "country/region": "Vietnam",
            "region": "SE ASIA",
            "geoData": null
        },
        {
            "contractor_id": "VN001467",
            "code": "VN001467",
            "address": "D02 Street Chau Duc Industrial Zone",
            "workers": 2086,
            "workers_line": 1930,
            "workers_female": 58,
            "workers_migrant": 0,
            "lat": 10.580198,
            "lon": 107.17486,
            "name": "GreenTech Headgear Company Limited",
            "city": "Chau Duc",
            "state": "Bà Ra - Vung Tàu",
            "postal_code": "78000",
            "average_worker_age": 31,
            "supplier_name": "ASIAN SOURCING HEADWEAR",
            "factory_tier": "Tier 1/ATL",
            "product_type": "Apparel",
            "brand": "Nike",
            "special_events": "",
            "country/region": "Vietnam",
            "region": "SE ASIA",
            "geoData": null
        },
        {
            "contractor_id": "VN000564",
            "code": "VQ VIE",
            "address": "Nghi Son Economic Zone Dao Duy Tu Ward ",
            "workers": 21878,
            "workers_line": 19845,
            "workers_female": 90,
            "workers_migrant": 0,
            "lat": 19.43901,
            "lon": 105.775088,
            "name": "Annora Vietnam  Footwear Co.,Ltd",
            "city": "Nghi Son Township",
            "state": "Thanh Hóa",
            "postal_code": "456400",
            "average_worker_age": 36,
            "supplier_name": "HUALI",
            "factory_tier": "Tier 1/ATL",
            "product_type": "Footwear",
            "brand": "Nike",
            "special_events": "",
            "country/region": "Vietnam",
            "region": "SE ASIA",
            "geoData": null
        },
        {
            "contractor_id": "VN000566",
            "code": "VT1 VIE",
            "address": "864 Street C group",
            "workers": 6429,
            "workers_line": 5854,
            "workers_female": 94,
            "workers_migrant": 0,
            "lat": 10.36813,
            "lon": 106.34126,
            "name": "TKG TAEKWANG VINA JOINT STOCK COMPANY-MY THO BRANCH",
            "city": "My Tho",
            "state": "Tin Giang",
            "postal_code": "860000",
            "average_worker_age": 32,
            "supplier_name": "TAEKWANG",
            "factory_tier": "Tier 2/ATL",
            "product_type": "Footwear",
            "brand": "Nike",
            "special_events": "",
            "country/region": "Vietnam",
            "region": "SE ASIA",
            "geoData": null
        },
        {
            "contractor_id": "VN000547",
            "code": "V3 VIE",
            "address": "DONG BINH VILLAGE DONG THINH WARD NGHIA HUNG DISTRICT",
            "workers": 9040,
            "workers_line": 8150,
            "workers_female": 80,
            "workers_migrant": 0,
            "lat": 20.253746,
            "lon": 106.121438,
            "name": "Vietnam Golden Victory Co., Ltd.",
            "city": "Nam Dinh",
            "state": "Nam Ðnh",
            "postal_code": "420000",
            "average_worker_age": 38,
            "supplier_name": "STELLA",
            "factory_tier": "Tier 1/ATL",
            "product_type": "Footwear",
            "brand": "Nike",
            "special_events": "Collegiate",
            "country/region": "Vietnam",
            "region": "SE ASIA",
            "geoData": null
        },
        {
            "contractor_id": "VN003226",
            "code": "VN003226",
            "address": "Ong Dong quarter",
            "workers": 133,
            "workers_line": 118,
            "workers_female": 0,
            "workers_migrant": 2,
            "lat": 11.08794,
            "lon": 106.76837,
            "name": "Dae Young Vina",
            "city": "Tan Uyen",
            "state": "Bình Duong",
            "postal_code": "75000",
            "average_worker_age": 37,
            "supplier_name": "DAE YOUNG RUBBER",
            "factory_tier": "Tier 2/ATL",
            "product_type": "Footwear",
            "brand": "Nike",
            "special_events": "",
            "country/region": "Vietnam",
            "region": "SE ASIA",
            "geoData": null
        },
        {
            "contractor_id": "VN000565",
            "code": "VT VIE",
            "address": "No 8 Road 9A",
            "workers": 15894,
            "workers_line": 13390,
            "workers_female": 80,
            "workers_migrant": 0,
            "lat": 14.058324,
            "lon": 108.277199,
            "name": "TKG TAEKWANG VINA JOINT STOCK COMPANY",
            "city": "BIEN HOA",
            "state": "Ðng Nai",
            "postal_code": "700000",
            "average_worker_age": 39,
            "supplier_name": "TAEKWANG",
            "factory_tier": "Tier 1/ATL",
            "product_type": "Footwear",
            "brand": "Nike",
            "special_events": "",
            "country/region": "Vietnam",
            "region": "SE ASIA",
            "geoData": null
        },
        {
            "contractor_id": "VN001141",
            "code": "SFC VIE",
            "address": "LOT II4 MY XUAN A2 INDUSTRIAL PARK",
            "workers": 1182,
            "workers_line": 960,
            "workers_female": 20,
            "workers_migrant": 2,
            "lat": 10.63595,
            "lon": 107.040084,
            "name": "SAN FANG (TR1) (VIETNAM)",
            "city": "PHU MY TOWN",
            "state": "Bà Ra - Vung Tàu",
            "postal_code": "78707",
            "average_worker_age": 31,
            "supplier_name": "SAN FANG",
            "factory_tier": "Tier 2/BTL",
            "product_type": "Footwear",
            "brand": "Nike",
            "special_events": "",
            "country/region": "Vietnam",
            "region": "SE ASIA",
            "geoData": null
        },
        {
            "contractor_id": "VN000628",
            "code": "SIV32 VIE",
            "address": "Hung Thanh Hamlet",
            "workers": 2067,
            "workers_line": 1880,
            "workers_female": 68,
            "workers_migrant": 0,
            "lat": 10.385703,
            "lon": 106.682505,
            "name": "Viet Long Hung Garment Company Limited",
            "city": "Go Cong City",
            "state": "Tin Giang",
            "postal_code": "860000",
            "average_worker_age": 28,
            "supplier_name": "SOUTH ISLAND",
            "factory_tier": "Tier 1/ATL",
            "product_type": "Apparel",
            "brand": "Nike",
            "special_events": "Collegiate",
            "country/region": "Vietnam",
            "region": "SE ASIA",
            "geoData": null
        },
        {
            "contractor_id": "VN001272",
            "code": "105.2 VIE",
            "address": "Lot L VIET HUNG 2 INDUSTRIAL PARK",
            "workers": 286,
            "workers_line": 227,
            "workers_female": 15,
            "workers_migrant": 0,
            "lat": 11.05579,
            "lon": 106.552,
            "name": "YOU YOUNG (VIETNAM)",
            "city": "Ben Cat, Binh Duong",
            "state": "Bình Duong",
            "postal_code": "820000",
            "average_worker_age": 33,
            "supplier_name": "YOU YOUNG",
            "factory_tier": "Tier 2/BTL",
            "product_type": "Footwear",
            "brand": "Nike",
            "special_events": "",
            "country/region": "Vietnam",
            "region": "SE ASIA",
            "geoData": null
        },
        {
            "contractor_id": "VN002385",
            "code": "VN002385",
            "address": "TAY HO VILLAGE",
            "workers": 2305,
            "workers_line": 2216,
            "workers_female": 86,
            "workers_migrant": 0,
            "lat": 19.918933,
            "lon": 105.518638,
            "name": "ROLLSPORT VIETNAM FOOTWEAR LIMTED",
            "city": "Tho Xuan",
            "state": "Thanh Hóa",
            "postal_code": "440000",
            "average_worker_age": 35,
            "supplier_name": "HUALI",
            "factory_tier": "Tier 2/ATL",
            "product_type": "Footwear",
            "brand": "Nike",
            "special_events": "",
            "country/region": "Vietnam",
            "region": "SE ASIA",
            "geoData": null
        },
        {
            "contractor_id": "VN000455",
            "code": "SIV01 VIE",
            "address": "Lot IV No 13 No 4 Street",
            "workers": 461,
            "workers_line": 396,
            "workers_female": 78,
            "workers_migrant": 0,
            "lat": 10.80108,
            "lon": 106.62319,
            "name": "NAM THIEN COMPANY LIMITED",
            "city": "Ho Chi Minh",
            "state": "Ho Chi Minh",
            "postal_code": "700000",
            "average_worker_age": 34,
            "supplier_name": "SOUTH ISLAND",
            "factory_tier": "Tier 1/ATL",
            "product_type": "Apparel",
            "brand": "Nike",
            "special_events": "Collegiate",
            "country/region": "Vietnam",
            "region": "SE ASIA",
            "geoData": null
        },
        {
            "contractor_id": "VN002815",
            "code": "VN002815",
            "address": " T6 147M 6 group",
            "workers": 117,
            "workers_line": 96,
            "workers_female": 91,
            "workers_migrant": 11,
            "lat": 10.960022,
            "lon": 106.720668,
            "name": "KWAN TAT VIET NAM INDUSTRIAL LIMITED",
            "city": "Thuan An",
            "state": "Bình Duong",
            "postal_code": "752118",
            "average_worker_age": 28,
            "supplier_name": "KWAN TAT VIET NAM INDUSTRIAL LIMITED",
            "factory_tier": "Tier 1/ATL",
            "product_type": "Apparel",
            "brand": "Nike",
            "special_events": "Collegiate",
            "country/region": "Vietnam",
            "region": "SE ASIA",
            "geoData": null
        },
        {
            "contractor_id": "VN000661",
            "code": "MXP26 VIE",
            "address": "Lot with area of 110238 m2",
            "workers": 2662,
            "workers_line": 2116,
            "workers_female": 75,
            "workers_migrant": 0,
            "lat": 20.43519,
            "lon": 106.257567,
            "name": "Maxport Limited (Viet Nam) - Thai Binh Branch",
            "city": "Vu Thu",
            "state": "Thái Bình",
            "postal_code": "410000",
            "average_worker_age": 35,
            "supplier_name": "MAXPORT",
            "factory_tier": "Tier 1/ATL",
            "product_type": "Apparel",
            "brand": "Nike",
            "special_events": "",
            "country/region": "Vietnam",
            "region": "SE ASIA",
            "geoData": null
        },
        {
            "contractor_id": "VN003255",
            "code": "VN003255",
            "address": "THO XUAN TOWN INDUSTRIAL CLUSTER XUANTRUONG COMMU",
            "workers": 643,
            "workers_line": 601,
            "workers_female": 0,
            "workers_migrant": 0,
            "lat": 19.920484,
            "lon": 105.522984,
            "name": "Tho Xuan Corporation Company Limited",
            "city": "Thanh Hoa",
            "state": "Thanh Hóa",
            "postal_code": "40000",
            "average_worker_age": 36,
            "supplier_name": "THO XUAN CORP",
            "factory_tier": "Tier 1/ATL",
            "product_type": "Apparel",
            "brand": "Nike",
            "special_events": "",
            "country/region": "Vietnam",
            "region": "SE ASIA",
            "geoData": null
        },
        {
            "contractor_id": "VN000994",
            "code": "VN000994",
            "address": "LOT M2 M3 VIET HUONG 2 INDUSTRIAL ZONE AN TAY VILLAGE",
            "workers": 684,
            "workers_line": 555,
            "workers_female": 48,
            "workers_migrant": 0,
            "lat": 11.0913,
            "lon": 106.5402,
            "name": "ISA INDUSTRIAL CO LTD (VIETNAM)",
            "city": "Binh Duong",
            "state": "Bình Duong",
            "postal_code": "820000",
            "average_worker_age": 26,
            "supplier_name": "ISA",
            "factory_tier": "Tier 2/BTL",
            "product_type": "Footwear",
            "brand": "Nike",
            "special_events": "",
            "country/region": "Vietnam",
            "region": "SE ASIA",
            "geoData": null
        },
        {
            "contractor_id": "VN002314",
            "code": "VN002314",
            "address": "Nam Hong Industrial Zone",
            "workers": 1201,
            "workers_line": 1080,
            "workers_female": 98,
            "workers_migrant": 0,
            "lat": 18.50825,
            "lon": 105.71057,
            "name": "Haivina Hong Linh Co. Ltd",
            "city": "Ha Tinh Province",
            "state": "Hà Tinh",
            "postal_code": "480000",
            "average_worker_age": 35,
            "supplier_name": "HAIVINA HONG",
            "factory_tier": "Tier 1/ATL",
            "product_type": "Equipment",
            "brand": "Nike",
            "special_events": "",
            "country/region": "Vietnam",
            "region": "SE ASIA",
            "geoData": null
        },
        {
            "contractor_id": "VN000927",
            "code": "VN000927",
            "address": "LOT B2 7",
            "workers": 44,
            "workers_line": 20,
            "workers_female": 0,
            "workers_migrant": 0,
            "lat": 11.1014,
            "lon": 106.67523,
            "name": "GB LIGHT CO LTD (VIETNAM)",
            "city": "Ho Chi Minh",
            "state": "Ho Chi Minh",
            "postal_code": "75000",
            "average_worker_age": 33,
            "supplier_name": "GB LIGHT",
            "factory_tier": "Tier 2/BTL",
            "product_type": "Footwear",
            "brand": "Nike",
            "special_events": "",
            "country/region": "Vietnam",
            "region": "SE ASIA",
            "geoData": null
        },
        {
            "contractor_id": "VN002417",
            "code": "VN002417",
            "address": "No 108 part of lot D road No 3 Dong An IP Binh Hoa Ward",
            "workers": 1016,
            "workers_line": 892,
            "workers_female": 76,
            "workers_migrant": 0,
            "lat": 10.896416,
            "lon": 106.729473,
            "name": "Lucky Star Vietnam Garment Company Limited",
            "city": "Thuan An",
            "state": "Bình Duong",
            "postal_code": "820000",
            "average_worker_age": 28,
            "supplier_name": "LUCKY STAR",
            "factory_tier": "Tier 1/ATL",
            "product_type": "Apparel",
            "brand": "Nike",
            "special_events": "",
            "country/region": "Vietnam",
            "region": "SE ASIA",
            "geoData": null
        },
        {
            "contractor_id": "VN000562",
            "code": "VO VIE",
            "address": "Song May Industrial Zone Bac Son Ward",
            "workers": 8545,
            "workers_line": 8252,
            "workers_female": 64,
            "workers_migrant": 0,
            "lat": 10.978427,
            "lon": 106.950451,
            "name": "VIETNAM DONA ORIENT CO., LTD",
            "city": "Trang Bom",
            "state": "Ðng Nai",
            "postal_code": "76000",
            "average_worker_age": 36,
            "supplier_name": "FENG TAY",
            "factory_tier": "Tier 1/ATL",
            "product_type": "Footwear",
            "brand": "Nike",
            "special_events": "",
            "country/region": "Vietnam",
            "region": "SE ASIA",
            "geoData": null
        },
        {
            "contractor_id": "VN001036",
            "code": "VN001036",
            "address": "NHON TRACH 3 INDUSTRIAL ZONE NHON TRACH DISTRICT",
            "workers": 240,
            "workers_line": 184,
            "workers_female": 70,
            "workers_migrant": 6,
            "lat": 10.7343466,
            "lon": 106.9293791,
            "name": "KUO YUEN (VIETNAM)",
            "city": "Dong Nai",
            "state": "Ðng Nai",
            "postal_code": "810000",
            "average_worker_age": 34,
            "supplier_name": "KUO YUEN",
            "factory_tier": "Tier 2/BTL",
            "product_type": "Footwear",
            "brand": "Nike",
            "special_events": "",
            "country/region": "Vietnam",
            "region": "SE ASIA",
            "geoData": null
        },
        {
            "contractor_id": "VN001303",
            "code": "VN001303",
            "address": "Hoang Long Industrial Zone",
            "workers": 17400,
            "workers_line": 15804,
            "workers_female": 91,
            "workers_migrant": 0,
            "lat": 19.84632,
            "lon": 105.801309,
            "name": "Rollsport Vietnam Footwear Limited",
            "city": "Thanh Hoa",
            "state": "Thanh Hóa",
            "postal_code": "440000",
            "average_worker_age": 35,
            "supplier_name": "HUALI",
            "factory_tier": "Tier 1/ATL",
            "product_type": "Footwear",
            "brand": "Nike",
            "special_events": "",
            "country/region": "Vietnam",
            "region": "SE ASIA",
            "geoData": null
        },
        {
            "contractor_id": "VN000911",
            "code": "FTC VIE",
            "address": "Section 1 Nhut Chanh Com Ben Luc District",
            "workers": 1061,
            "workers_line": 920,
            "workers_female": 48,
            "workers_migrant": 3,
            "lat": 10.61114,
            "lon": 106.47004,
            "name": "FORMOSA TAFFETA VIETNAM CO LTD",
            "city": "Ben Luc District",
            "state": "Tây Ninh",
            "postal_code": "81000",
            "average_worker_age": 33,
            "supplier_name": "FORMOSA TAFFETA",
            "factory_tier": "Tier 2/BTL",
            "product_type": "Apparel",
            "brand": "Nike",
            "special_events": "",
            "country/region": "Vietnam",
            "region": "SE ASIA",
            "geoData": null
        },
        {
            "contractor_id": "VN003238",
            "code": "VN003238",
            "address": "Southern Area A Bim Son Industrial Park",
            "workers": 350,
            "workers_line": 300,
            "workers_female": 0,
            "workers_migrant": 0,
            "lat": 20.107417,
            "lon": 105.847889,
            "name": "SAB Industrial (Vietnam) Co.,Ltd.",
            "city": "Bac Son Ward Bim Son",
            "state": "Thanh Hóa",
            "postal_code": "40700",
            "average_worker_age": 32,
            "supplier_name": "WEIXING INDUSTRIAL DEVELOPMENT CO LTD",
            "factory_tier": "Tier 2/BTL",
            "product_type": "Apparel",
            "brand": "Nike",
            "special_events": "",
            "country/region": "Vietnam",
            "region": "SE ASIA",
            "geoData": null
        },
        {
            "contractor_id": "VN001297",
            "code": "VN001297",
            "address": "Textile Workshop 4th floor",
            "workers": 243,
            "workers_line": 234,
            "workers_female": 50,
            "workers_migrant": 4,
            "lat": 14.058324,
            "lon": 108.277199,
            "name": "Hua Feng Haptic Vietnam",
            "city": "Nhon Trach",
            "state": "Ðng Nai",
            "postal_code": "76266",
            "average_worker_age": 30,
            "supplier_name": "HUA FENG TEXTILE",
            "factory_tier": "Tier 2/ATL",
            "product_type": "Footwear",
            "brand": "Nike",
            "special_events": "",
            "country/region": "Vietnam",
            "region": "SE ASIA",
            "geoData": null
        },
        {
            "contractor_id": "VN000362",
            "code": "OAG VIE",
            "address": "PLOT K BINH HOA IZ BINH HOA COMMUNE CHAU THANH DISTRICT",
            "workers": 428,
            "workers_line": 357,
            "workers_female": 81,
            "workers_migrant": 0,
            "lat": 10.44792,
            "lon": 105.35052,
            "name": "ORIENTAL GARMENT AN GIANG CO LTD",
            "city": "AN GIANG",
            "state": "An Giang",
            "postal_code": "90000",
            "average_worker_age": 37,
            "supplier_name": "ORIENTAL GARMENT",
            "factory_tier": "Tier 1/ATL",
            "product_type": "Apparel",
            "brand": "Nike",
            "special_events": "",
            "country/region": "Vietnam",
            "region": "SE ASIA",
            "geoData": null
        },
        {
            "contractor_id": "VN000457",
            "code": "SIV29 VIE",
            "address": "Lot B1 4",
            "workers": 41,
            "workers_line": 38,
            "workers_female": 42,
            "workers_migrant": 0,
            "lat": 10.48292,
            "lon": 106.36517,
            "name": "TTG Co. Ltd.",
            "city": "Tien Giang",
            "state": "Long An",
            "postal_code": "3937350",
            "average_worker_age": 30,
            "supplier_name": "SOUTH ISLAND",
            "factory_tier": "Tier 1/ATL",
            "product_type": "Apparel",
            "brand": "Nike",
            "special_events": "Collegiate",
            "country/region": "Vietnam",
            "region": "SE ASIA",
            "geoData": null
        },
        {
            "contractor_id": "VN001390",
            "code": "VN001390",
            "address": "No 33  6th Street",
            "workers": 726,
            "workers_line": 441,
            "workers_female": 54,
            "workers_migrant": 0,
            "lat": 10.931715,
            "lon": 106.631817,
            "name": "Maxim Label and Packaging Vietnam Co., Ltd",
            "city": "Thuan An",
            "state": "Bình Duong",
            "postal_code": "75209",
            "average_worker_age": 28,
            "supplier_name": "MAXIM",
            "factory_tier": "Tier 2/BTL",
            "product_type": "Apparel",
            "brand": "Nike",
            "special_events": "",
            "country/region": "Vietnam",
            "region": "SE ASIA",
            "geoData": null
        },
        {
            "contractor_id": "VN003131",
            "code": "VN003131",
            "address": "Lot CN24 Cao An Industrial cluster",
            "workers": 470,
            "workers_line": 387,
            "workers_female": 0,
            "workers_migrant": 0,
            "lat": 20.956076,
            "lon": 106.267441,
            "name": "PROSPORTS FASHION (VIET NAM) CO., LTD.",
            "city": "Hai Duong",
            "state": "Hai Phong",
            "postal_code": "03608",
            "average_worker_age": 34,
            "supplier_name": "PROSPORTS FASHION",
            "factory_tier": "Tier 1/ATL",
            "product_type": "Apparel",
            "brand": "Converse",
            "special_events": "",
            "country/region": "Vietnam",
            "region": "SE ASIA",
            "geoData": null
        },
        {
            "contractor_id": "VN002975",
            "code": "VN002975",
            "address": "New Hamlet 2",
            "workers": 715,
            "workers_line": 439,
            "workers_female": 55,
            "workers_migrant": 0,
            "lat": 10.875201,
            "lon": 106.338871,
            "name": "EAGLE NICE VIETNAM COMPANY LIMITED",
            "city": "Tay Ninh",
            "state": "Tây Ninh",
            "postal_code": "82720",
            "average_worker_age": 34,
            "supplier_name": "EAGLE NICE",
            "factory_tier": "Tier 1/ATL",
            "product_type": "Apparel",
            "brand": "Nike",
            "special_events": "",
            "country/region": "Vietnam",
            "region": "SE ASIA",
            "geoData": null
        },
        {
            "contractor_id": "VN000413",
            "code": "RIS VIE",
            "address": "LOT E01 TRUNG TAM ROAD",
            "workers": 2560,
            "workers_line": 1926,
            "workers_female": 42,
            "workers_migrant": 0,
            "lat": 10.636149,
            "lon": 106.719097,
            "name": "Avery Dennison RIS Vietnam Co. Ltd.",
            "city": "Can Giuoc",
            "state": "Long An",
            "postal_code": "850000",
            "average_worker_age": 28,
            "supplier_name": "AVERY DENNISON",
            "factory_tier": "Tier 2/BTL",
            "product_type": "Footwear",
            "brand": "Nike",
            "special_events": "",
            "country/region": "Vietnam",
            "region": "SE ASIA",
            "geoData": null
        },
        {
            "contractor_id": "VN002654",
            "code": "VN002654",
            "address": "Road No 5 Trang Bang Industrial Park",
            "workers": 908,
            "workers_line": 789,
            "workers_female": 48,
            "workers_migrant": 1,
            "lat": 11.31385,
            "lon": 106.131067,
            "name": "Tremon Sporting Goods Enterprise Co.,Ltd",
            "city": "Tay Ninh",
            "state": "Tây Ninh",
            "postal_code": "80000",
            "average_worker_age": 27,
            "supplier_name": "TREMON",
            "factory_tier": "Tier 1/ATL",
            "product_type": "Equipment",
            "brand": "Nike",
            "special_events": "",
            "country/region": "Vietnam",
            "region": "SE ASIA",
            "geoData": null
        },
        {
            "contractor_id": "VN000326",
            "code": "MXP N40 VIE",
            "address": "88 Ha Dinh Thanh Xuan Dist",
            "workers": 84,
            "workers_line": 61,
            "workers_female": 80,
            "workers_migrant": 0,
            "lat": 20.991582,
            "lon": 105.806405,
            "name": "Ha Noi Garment No. 40 Joint Stock Company",
            "city": "Ha Noi City",
            "state": "Ha Noi",
            "postal_code": "800000",
            "average_worker_age": 45,
            "supplier_name": "MAXPORT",
            "factory_tier": "Tier 1/ATL",
            "product_type": "Apparel",
            "brand": "Nike",
            "special_events": "",
            "country/region": "Vietnam",
            "region": "SE ASIA",
            "geoData": null
        },
        {
            "contractor_id": "VN003133",
            "code": "VN003133",
            "address": "Tu Dong Village",
            "workers": 381,
            "workers_line": 310,
            "workers_female": 0,
            "workers_migrant": 1,
            "lat": 20.853181,
            "lon": 106.035517,
            "name": "JOY VINA FASHION CO., LTD",
            "city": "Hung Yen",
            "state": "Hung Yên",
            "postal_code": "39000",
            "average_worker_age": 35,
            "supplier_name": "JOY VINA FASHION",
            "factory_tier": "Tier 1/ATL",
            "product_type": "Apparel",
            "brand": "Converse",
            "special_events": "",
            "country/region": "Vietnam",
            "region": "SE ASIA",
            "geoData": null
        },
        {
            "contractor_id": "VN000667",
            "code": "VN667 VIE",
            "address": "LOT C  STREET 1 DONG AN INDUSTRIAL PARK BINH HOA WARD",
            "workers": 1354,
            "workers_line": 1334,
            "workers_female": 68,
            "workers_migrant": 0,
            "lat": 10.89865,
            "lon": 106.73162,
            "name": "PREMIER GLOBAL (VIETNAM) GARMENT FACTORY CO., LTD",
            "city": "THUAN AN CITY",
            "state": "Bình Duong",
            "postal_code": "82000",
            "average_worker_age": 32,
            "supplier_name": "NICE APPAREL",
            "factory_tier": "Tier 1/ATL",
            "product_type": "Apparel",
            "brand": "Nike",
            "special_events": "",
            "country/region": "Vietnam",
            "region": "SE ASIA",
            "geoData": null
        },
        {
            "contractor_id": "VN000050",
            "code": "CCV VIE",
            "address": "Tan Thuan Road Tan Thuan",
            "workers": 1607,
            "workers_line": 1522,
            "workers_female": 85,
            "workers_migrant": 0,
            "lat": 10.762,
            "lon": 106.74,
            "name": "CCH TOP VN CO., LTD.",
            "city": "HO CHI MINH",
            "state": "Ho Chi Minh",
            "postal_code": "70000",
            "average_worker_age": 28,
            "supplier_name": "CHUAN CHENG",
            "factory_tier": "Tier 1/ATL",
            "product_type": "Apparel",
            "brand": "Nike",
            "special_events": "",
            "country/region": "Vietnam",
            "region": "SE ASIA",
            "geoData": null
        },
        {
            "contractor_id": "VN001089",
            "code": "GAIN VIE",
            "address": "NO 40 6 N14 Street",
            "workers": 10150,
            "workers_line": 9800,
            "workers_female": 46,
            "workers_migrant": 0,
            "lat": 11.14639,
            "lon": 106.332078,
            "name": "Gain Lucky (Vietnam) Limited",
            "city": "Phuoc Dong Ward",
            "state": "Tây Ninh",
            "postal_code": "80700",
            "average_worker_age": 30,
            "supplier_name": "SHENZHOU",
            "factory_tier": "Tier 2/BTL",
            "product_type": "Apparel",
            "brand": "Nike",
            "special_events": "Collegiate",
            "country/region": "Vietnam",
            "region": "SE ASIA",
            "geoData": null
        },
        {
            "contractor_id": "VN001369",
            "code": "VN001369",
            "address": "Lot B7 Tan Hoi Industrial cluster",
            "workers": 425,
            "workers_line": 368,
            "workers_female": 85,
            "workers_migrant": 0,
            "lat": 11.64832,
            "lon": 106.18652,
            "name": "PHUC TAI TAY NINH CO., LTD",
            "city": "Tay Ninh",
            "state": "Tây Ninh",
            "postal_code": "80000",
            "average_worker_age": 34,
            "supplier_name": "SPORTS GEAR",
            "factory_tier": "Tier 1/ATL",
            "product_type": "Footwear",
            "brand": "Nike",
            "special_events": "",
            "country/region": "Vietnam",
            "region": "SE ASIA",
            "geoData": null
        },
        {
            "contractor_id": "VN002821",
            "code": "VN002821",
            "address": "Lot N3 Road No01 Phuc Long IP Long Hiep Commune",
            "workers": 126,
            "workers_line": 105,
            "workers_female": 27,
            "workers_migrant": 0,
            "lat": 10.625099,
            "lon": 106.512257,
            "name": "Sun Yuan Optical (Vietnam) Co. Ltd.",
            "city": "Ben Luc District",
            "state": "Long An",
            "postal_code": "850000",
            "average_worker_age": 35,
            "supplier_name": "SUN YUAN OPTICAL (VIETNAM) CO LTD",
            "factory_tier": "Tier 1/ATL",
            "product_type": "Equipment",
            "brand": "Nike",
            "special_events": "",
            "country/region": "Vietnam",
            "region": "SE ASIA",
            "geoData": null
        },
        {
            "contractor_id": "VN002330",
            "code": "VN002330",
            "address": "Highway 91 Group 9",
            "workers": 1141,
            "workers_line": 954,
            "workers_female": 78,
            "workers_migrant": 0,
            "lat": 10.105449,
            "lon": 105.67629,
            "name": "Viet Long Giang Garment Joint Stock Company ",
            "city": "Can Tho City",
            "state": "Can Tho",
            "postal_code": "900000",
            "average_worker_age": 28,
            "supplier_name": "SOUTH ISLAND",
            "factory_tier": "Tier 1/ATL",
            "product_type": "Apparel",
            "brand": "Nike",
            "special_events": "",
            "country/region": "Vietnam",
            "region": "SE ASIA",
            "geoData": null
        },
        {
            "contractor_id": "VN000184",
            "code": "GRV22 VIE",
            "address": "Lot AIII-11, Tan Huong Industrial Park , Tan Huong Ward, ",
            "workers": 799,
            "workers_line": 708,
            "workers_female": 83,
            "workers_migrant": 0,
            "lat": 10.481627,
            "lon": 106.34781,
            "name": "Green TG Co., Ltd",
            "city": "Tien Giang",
            "state": "Tin Giang",
            "postal_code": "82000",
            "average_worker_age": 34,
            "supplier_name": "GREEN TEXTILES",
            "factory_tier": "Tier 1/ATL",
            "product_type": "Apparel",
            "brand": "Nike",
            "special_events": "",
            "country/region": "Vietnam",
            "region": "SE ASIA",
            "geoData": null
        },
        {
            "contractor_id": "VN000563",
            "code": "VP VIE",
            "address": "Nguyen Ai Quoc Street, An Hoa Quarter, Hoa An Ward,",
            "workers": 16060,
            "workers_line": 12339,
            "workers_female": 83,
            "workers_migrant": 0,
            "lat": 20.8904493,
            "lon": 106.5495683,
            "name": "Pou Chen Vietnam Enterprise Ltd.",
            "city": "Bien Hoa City",
            "state": "Ðng Nai",
            "postal_code": "76113",
            "average_worker_age": 40,
            "supplier_name": "POU CHEN",
            "factory_tier": "Tier 1/ATL",
            "product_type": "Footwear",
            "brand": "Nike",
            "special_events": "",
            "country/region": "Vietnam",
            "region": "SE ASIA",
            "geoData": null
        },
        {
            "contractor_id": "VN001111",
            "code": "VN001111",
            "address": "LOT V 2 MY XUAN A2 INDUSTRIAL ZONE TAN THANH DISTRICT",
            "workers": 1428,
            "workers_line": 940,
            "workers_female": 58,
            "workers_migrant": 0,
            "lat": 10.37005,
            "lon": 107.08552,
            "name": "PRIME ASIA (VIETNAM)",
            "city": "VungTau",
            "state": "Bà Ra - Vung Tàu",
            "postal_code": "78000",
            "average_worker_age": 32,
            "supplier_name": "PRIME ASIA",
            "factory_tier": "Tier 2/BTL",
            "product_type": "Footwear",
            "brand": "Nike",
            "special_events": "",
            "country/region": "Vietnam",
            "region": "SE ASIA",
            "geoData": null
        },
        {
            "contractor_id": "VN000570",
            "code": "VX VIE",
            "address": "SONG MAY INDUSTRIAL ZONE BAC SON WARD",
            "workers": 10748,
            "workers_line": 8619,
            "workers_female": 68,
            "workers_migrant": 0,
            "lat": 10.9748,
            "lon": 106.954,
            "name": "DONA VICTOR FOOTWEAR CO., LTD",
            "city": "TRANG BOM DISTRICT",
            "state": "Ðng Nai",
            "postal_code": "76313",
            "average_worker_age": 38,
            "supplier_name": "FENG TAY",
            "factory_tier": "Tier 1/ATL",
            "product_type": "Footwear",
            "brand": "Nike",
            "special_events": "",
            "country/region": "Vietnam",
            "region": "SE ASIA",
            "geoData": null
        },
        {
            "contractor_id": "VN000560",
            "code": "VM VIE",
            "address": "Hiep Thanh Commercial Area, Loi Thuan Commune",
            "workers": 7039,
            "workers_line": 6378,
            "workers_female": 77,
            "workers_migrant": 0,
            "lat": 11.3675,
            "lon": 106.119,
            "name": "TKG TAEKWANG MOC BAI JOINT STOCK COMPANY",
            "city": "Tay Ninh",
            "state": "Tây Ninh",
            "postal_code": "80000",
            "average_worker_age": 38,
            "supplier_name": "TAEKWANG",
            "factory_tier": "Tier 1/ATL",
            "product_type": "Footwear",
            "brand": "Nike",
            "special_events": "",
            "country/region": "Vietnam",
            "region": "SE ASIA",
            "geoData": null
        },
        {
            "contractor_id": "VN000077",
            "code": "DDV VIE",
            "address": "Lot 101 2 and Lot 101 4 Amata Road 3",
            "workers": 1999,
            "workers_line": 1534,
            "workers_female": 98,
            "workers_migrant": 0,
            "lat": 14.058324,
            "lon": 108.277199,
            "name": "Unipax Co., Ltd",
            "city": "Bien Hoa City",
            "state": "Ðng Nai",
            "postal_code": "810000",
            "average_worker_age": 38,
            "supplier_name": "HWASEUNG CROWN",
            "factory_tier": "Tier 1/ATL",
            "product_type": "Apparel",
            "brand": "Nike",
            "special_events": "",
            "country/region": "Vietnam",
            "region": "SE ASIA",
            "geoData": null
        },
        {
            "contractor_id": "VN000550",
            "code": "VF VIE",
            "address": "Song May Industrial Zone Bac Son Ward",
            "workers": 7791,
            "workers_line": 7105,
            "workers_female": 60,
            "workers_migrant": 0,
            "lat": 10.978833,
            "lon": 106.952226,
            "name": "Dona Pacific (Vietnam) Co., Ltd.",
            "city": "Dong Nai",
            "state": "Ðng Nai",
            "postal_code": "76313",
            "average_worker_age": 37,
            "supplier_name": "FENG TAY",
            "factory_tier": "Tier 1/ATL",
            "product_type": "Footwear",
            "brand": "Nike",
            "special_events": "",
            "country/region": "Vietnam",
            "region": "SE ASIA",
            "geoData": null
        },
        {
            "contractor_id": "VN000450",
            "code": "SIV SIGA VIE",
            "address": "7 Le Minh Xuan",
            "workers": 1548,
            "workers_line": 1392,
            "workers_female": 75,
            "workers_migrant": 0,
            "lat": 10.7876,
            "lon": 106.656,
            "name": "Viet Tien Garment Corporation",
            "city": "Ho Chi Minh",
            "state": "Ho Chi Minh",
            "postal_code": "7000",
            "average_worker_age": 38,
            "supplier_name": "SOUTH ISLAND",
            "factory_tier": "Tier 1/ATL",
            "product_type": "Apparel",
            "brand": "Nike",
            "special_events": "",
            "country/region": "Vietnam",
            "region": "SE ASIA",
            "geoData": null
        },
        {
            "contractor_id": "VN001500",
            "code": "VN001500",
            "address": "Road 1 Duc Hoa Ha Industrial Park",
            "workers": 58,
            "workers_line": 36,
            "workers_female": 4,
            "workers_migrant": 17,
            "lat": 10.79487,
            "lon": 106.47011,
            "name": "COSMO-E-MART NON-WOVEN COMPANY LIMITED",
            "city": "Duc Hoa District",
            "state": "Long An",
            "postal_code": "850000",
            "average_worker_age": 35,
            "supplier_name": "COSMOPOLITAN TEXTILE",
            "factory_tier": "Tier 2/BTL",
            "product_type": "Footwear",
            "brand": "Nike",
            "special_events": "",
            "country/region": "Vietnam",
            "region": "SE ASIA",
            "geoData": null
        },
        {
            "contractor_id": "VN000866",
            "code": "DJT VIE",
            "address": "LOT D8 1 ROAD NO 2",
            "workers": 185,
            "workers_line": 108,
            "workers_female": 35,
            "workers_migrant": 9,
            "lat": 14.058324,
            "lon": 108.277199,
            "name": "DONGJIN TEXTILE VINA",
            "city": "Dong Nai",
            "state": "Ðng Nai",
            "postal_code": "76123",
            "average_worker_age": 38,
            "supplier_name": "DONGJIN",
            "factory_tier": "Tier 2/BTL",
            "product_type": "Footwear",
            "brand": "Nike",
            "special_events": "",
            "country/region": "Vietnam",
            "region": "SE ASIA",
            "geoData": null
        },
        {
            "contractor_id": "VN000029",
            "code": "AUR VIE",
            "address": "District 5",
            "workers": 4919,
            "workers_line": 4335,
            "workers_female": 84,
            "workers_migrant": 0,
            "lat": 20.91516,
            "lon": 106.64976,
            "name": "AURORA VIETNAM INDUSTRIAL FOOTWEAR CO. LTD",
            "city": "Hai Phong",
            "state": "Hai Phong",
            "postal_code": "180000",
            "average_worker_age": 42,
            "supplier_name": "HUALI",
            "factory_tier": "Tier 1/ATL",
            "product_type": "Footwear",
            "brand": "Converse",
            "special_events": "",
            "country/region": "Vietnam",
            "region": "SE ASIA",
            "geoData": null
        },
        {
            "contractor_id": "VN000177",
            "code": "FVN01 VIE",
            "address": "No 46 Dai Lo Tu Do Vietnam Singapore Industrial Park",
            "workers": 3879,
            "workers_line": 2902,
            "workers_female": 65,
            "workers_migrant": 0,
            "lat": 10.936,
            "lon": 106.738,
            "name": "Far Eastern Apparel (Vietnam) Limited",
            "city": "Thuan An",
            "state": "Bình Duong",
            "postal_code": "75000",
            "average_worker_age": 33,
            "supplier_name": "FAR EASTERN",
            "factory_tier": "Tier 1/ATL",
            "product_type": "Apparel",
            "brand": "Nike",
            "special_events": "Collegiate",
            "country/region": "Vietnam",
            "region": "SE ASIA",
            "geoData": null
        },
        {
            "contractor_id": "VN002910",
            "code": "VN002910",
            "address": "Lot CN6 Ba Thien Industrial Park Ba Hien Town",
            "workers": 121,
            "workers_line": 90,
            "workers_female": 0,
            "workers_migrant": 0,
            "lat": 21.31414,
            "lon": 105.69624,
            "name": "VIET NAM ARGENT OPTICAL LIMITED COMPANY",
            "city": "Binh Xuyen",
            "state": "Vinh Phúc",
            "postal_code": "15800",
            "average_worker_age": 33,
            "supplier_name": "VIET NAM ARGENT OPTICAL",
            "factory_tier": "Tier 1/ATL",
            "product_type": "Equipment",
            "brand": "Nike",
            "special_events": "",
            "country/region": "Vietnam",
            "region": "SE ASIA",
            "geoData": null
        },
        {
            "contractor_id": "VN000178",
            "code": "FVN21 VIE",
            "address": "D1 Street, Bac Dong Phu Industrial Park",
            "workers": 3379,
            "workers_line": 2431,
            "workers_female": 78,
            "workers_migrant": 0,
            "lat": 11.473998,
            "lon": 106.879882,
            "name": "Far Eastern New Apparel (Vietnam) Ltd (MDC)",
            "city": "Binh Phuoc",
            "state": "Bình Phuc",
            "postal_code": "83000",
            "average_worker_age": 30,
            "supplier_name": "FAR EASTERN",
            "factory_tier": "Tier 1/ATL",
            "product_type": "Apparel",
            "brand": "Nike",
            "special_events": "Collegiate",
            "country/region": "Vietnam",
            "region": "SE ASIA",
            "geoData": null
        },
        {
            "contractor_id": "VN002377",
            "code": "VN002377",
            "address": "818B Highway 30 Hamlet 3 An Hoa Commune",
            "workers": 1852,
            "workers_line": 1702,
            "workers_female": 66,
            "workers_migrant": 0,
            "lat": 10.71708,
            "lon": 105.37557,
            "name": "FASHION GARMENTS MEKONG CO., LTD",
            "city": "Tam Nong",
            "state": "Ðng Tháp",
            "postal_code": "870000",
            "average_worker_age": 28,
            "supplier_name": "FASHION GARMENTS",
            "factory_tier": "Tier 1/ATL",
            "product_type": "Apparel",
            "brand": "Nike",
            "special_events": "",
            "country/region": "Vietnam",
            "region": "SE ASIA",
            "geoData": null
        },
        {
            "contractor_id": "VN001342",
            "code": "PTC8 VIE",
            "address": "NO 33 6TH ROAD FORMOSA ZONE",
            "workers": 878,
            "workers_line": 802,
            "workers_female": 20,
            "workers_migrant": 3,
            "lat": 14.058324,
            "lon": 108.277199,
            "name": "PROMAX TEXTILE (VIETNAM) CO. LTD",
            "city": "Dong Nai",
            "state": "Ðng Nai",
            "postal_code": "76000",
            "average_worker_age": 28,
            "supplier_name": "PROMAX TEXTILE",
            "factory_tier": "Tier 2/BTL",
            "product_type": "Apparel",
            "brand": "Nike",
            "special_events": "",
            "country/region": "Vietnam",
            "region": "SE ASIA",
            "geoData": null
        },
        {
            "contractor_id": "VN000453",
            "code": "SIV SIGD VIE",
            "address": "425B Nguyen Dinh Chieu St W 8",
            "workers": 1421,
            "workers_line": 1286,
            "workers_female": 68,
            "workers_migrant": 0,
            "lat": 10.04612,
            "lon": 106.5927,
            "name": "Viet Hong Garment Export Co., Ltd.",
            "city": "Ben Tre",
            "state": "Bn Tre",
            "postal_code": "150513490",
            "average_worker_age": 33,
            "supplier_name": "SOUTH ISLAND",
            "factory_tier": "Tier 1/ATL",
            "product_type": "Apparel",
            "brand": "Nike",
            "special_events": "Collegiate",
            "country/region": "Vietnam",
            "region": "SE ASIA",
            "geoData": null
        },
        {
            "contractor_id": "VN002928",
            "code": "VN002928",
            "address": "LOT TMDV1  UYEN HUNG COMMERCIAL SERVICE AND RESIDENTIAL AREA QUARTER 7",
            "workers": 58,
            "workers_line": 46,
            "workers_female": 0,
            "workers_migrant": 4,
            "lat": 11.06965,
            "lon": 106.77924,
            "name": "VIETNAM JINTAI TEXTILE TECHNOLOGY COMPANY LIMITED",
            "city": "Tan Uyen",
            "state": "Bình Duong",
            "postal_code": "75406",
            "average_worker_age": 29,
            "supplier_name": "JOV GARMENT ACCESSORIAL MATERIAL",
            "factory_tier": "Tier 2/BTL",
            "product_type": "Apparel",
            "brand": "Nike",
            "special_events": "",
            "country/region": "Vietnam",
            "region": "SE ASIA",
            "geoData": null
        },
        {
            "contractor_id": "VN000641",
            "code": "LON1 VIE",
            "address": "Lot HC1 and Lot 01HC2 Route 3",
            "workers": 806,
            "workers_line": 665,
            "workers_female": 76,
            "workers_migrant": 1,
            "lat": 10.87934,
            "lon": 106.51946,
            "name": "Longway Vietnam Company Limited",
            "city": "Duc Hoa",
            "state": "Long An",
            "postal_code": "863900",
            "average_worker_age": 36,
            "supplier_name": "LONGWAY",
            "factory_tier": "Tier 1/ATL",
            "product_type": "Equipment",
            "brand": "Nike",
            "special_events": "",
            "country/region": "Vietnam",
            "region": "SE ASIA",
            "geoData": null
        },
        {
            "contractor_id": "VN000613",
            "code": "VCT VIE",
            "address": "Hung Phu 2B Industrial Park Phu Thu ward",
            "workers": 14672,
            "workers_line": 14277,
            "workers_female": 64,
            "workers_migrant": 0,
            "lat": 9.97307,
            "lon": 105.80173,
            "name": "TKG TAEKWANG CAN THO COMPANY LIMITED",
            "city": "Cai Rang",
            "state": "Can Tho",
            "postal_code": "900000",
            "average_worker_age": 28,
            "supplier_name": "TAEKWANG",
            "factory_tier": "Tier 1/ATL",
            "product_type": "Footwear",
            "brand": "Nike",
            "special_events": "",
            "country/region": "Vietnam",
            "region": "SE ASIA",
            "geoData": null
        },
        {
            "contractor_id": "VN000408",
            "code": "QVE VIE",
            "address": "NGUYEN VAN NI STREET  HAMLET  2",
            "workers": 4745,
            "workers_line": 4278,
            "workers_female": 88,
            "workers_migrant": 0,
            "lat": 10.98918,
            "lon": 106.5052,
            "name": "QUANG VIET ENTERPRISE CO., LTD",
            "city": "HO CHI MINH",
            "state": "Ho Chi Minh",
            "postal_code": "70000",
            "average_worker_age": 34,
            "supplier_name": "QUANG VIET",
            "factory_tier": "Tier 1/ATL",
            "product_type": "Apparel",
            "brand": "Nike",
            "special_events": "",
            "country/region": "Vietnam",
            "region": "SE ASIA",
            "geoData": null
        },
        {
            "contractor_id": "VN003458",
            "code": "VN003458",
            "address": "Street No 5",
            "workers": 360,
            "workers_line": 320,
            "workers_female": 0,
            "workers_migrant": 0,
            "lat": 10.710425,
            "lon": 106.943112,
            "name": "PROMAX TEXTILE (VIETNAM) CO. LTD.  (FTY 2)",
            "city": "Nhon Trach district",
            "state": "Ðng Nai",
            "postal_code": "810000",
            "average_worker_age": 30,
            "supplier_name": "PROMAX TEXTILE",
            "factory_tier": "Tier 2/BTL",
            "product_type": "Apparel",
            "brand": "Nike",
            "special_events": "",
            "country/region": "Vietnam",
            "region": "SE ASIA",
            "geoData": null
        },
        {
            "contractor_id": "VN000899",
            "code": "FET VIE",
            "address": "Land Lot B 5B CN Road DC Bau Bang Lai Uyen town",
            "workers": 1101,
            "workers_line": 476,
            "workers_female": 31,
            "workers_migrant": 0,
            "lat": 11.269911,
            "lon": 106.598756,
            "name": "FAR EASTERN POLYTEX (VIETNAM) LTD",
            "city": "Bau Bang District",
            "state": "Bình Duong",
            "postal_code": "75000",
            "average_worker_age": 29,
            "supplier_name": "FAR EASTERN",
            "factory_tier": "Tier 2/BTL",
            "product_type": "Apparel",
            "brand": "Nike",
            "special_events": "Collegiate",
            "country/region": "Vietnam",
            "region": "SE ASIA",
            "geoData": null
        },
        {
            "contractor_id": "VN002012",
            "code": "VN002012",
            "address": "Lot HA3 and HA4 and 01HA5 and 02HA5",
            "workers": 190,
            "workers_line": 150,
            "workers_female": 30,
            "workers_migrant": 5,
            "lat": 10.899503,
            "lon": 106.38565,
            "name": "Ting Heng Co., Ltd",
            "city": "Duc Hoa",
            "state": "Long An",
            "postal_code": "850000",
            "average_worker_age": 28,
            "supplier_name": "TING HENG",
            "factory_tier": "Tier 2/BTL",
            "product_type": "Footwear",
            "brand": "Converse",
            "special_events": "",
            "country/region": "Vietnam",
            "region": "SE ASIA",
            "geoData": null
        },
        {
            "contractor_id": "VN000149",
            "code": "EVT VIE",
            "address": "Phuoc Hai Quarter Thai Hoa Town",
            "workers": 650,
            "workers_line": 591,
            "workers_female": 43,
            "workers_migrant": 1,
            "lat": 11.11113,
            "lon": 106.79424,
            "name": "EverTech Plastic Vietnam Company LTD Branch",
            "city": "Tan Uyen City",
            "state": "Bình Duong",
            "postal_code": "75416",
            "average_worker_age": 28,
            "supplier_name": "EVER TECH",
            "factory_tier": "Tier 2/ATL",
            "product_type": "Footwear",
            "brand": "Nike",
            "special_events": "",
            "country/region": "Vietnam",
            "region": "SE ASIA",
            "geoData": null
        },
        {
            "contractor_id": "VN000423",
            "code": "S VIE",
            "address": "Workshop 1 to 5 Longthanh IP Longthanh District",
            "workers": 977,
            "workers_line": 679,
            "workers_female": 41,
            "workers_migrant": 0,
            "lat": 10.823948,
            "lon": 106.926079,
            "name": "framas Korea Vina Co., Ltd",
            "city": "Dong Nai",
            "state": "Ðng Nai",
            "postal_code": "815300",
            "average_worker_age": 29,
            "supplier_name": "FRAMAS",
            "factory_tier": "Tier 2/ATL",
            "product_type": "Footwear",
            "brand": "Nike",
            "special_events": "",
            "country/region": "Vietnam",
            "region": "SE ASIA",
            "geoData": null
        },
        {
            "contractor_id": "VN001213",
            "code": "3474 VIE",
            "address": "LOT NO II1 MY XUAN A2 INDUS MY XUAN WARD PHU MY CITY BRVT",
            "workers": 1310,
            "workers_line": 1210,
            "workers_female": 40,
            "workers_migrant": 2,
            "lat": 10.64069,
            "lon": 107.03982,
            "name": "TONG HONG TANNERY CO LTD (VIETNAM)",
            "city": "PHU MY",
            "state": "Bà Ra - Vung Tàu",
            "postal_code": "795638",
            "average_worker_age": 36,
            "supplier_name": "TONG HONG",
            "factory_tier": "Tier 2/BTL",
            "product_type": "Footwear",
            "brand": "Nike",
            "special_events": "",
            "country/region": "Vietnam",
            "region": "SE ASIA",
            "geoData": null
        },
        {
            "contractor_id": "VN000934",
            "code": "VND VIE",
            "address": "LOT NO 7 ROAD 5A NHON TRACH 2 INDUSTRIAL ZONE",
            "workers": 510,
            "workers_line": 315,
            "workers_female": 33,
            "workers_migrant": 0,
            "lat": 10.6905305,
            "lon": 106.8503771,
            "name": "GOLD LONG JOHN (VIETNAM)",
            "city": "Dong Nai",
            "state": "Ðng Nai",
            "postal_code": "815956",
            "average_worker_age": 33,
            "supplier_name": "GOLD LONG JOHN",
            "factory_tier": "Tier 2/ATL",
            "product_type": "Footwear",
            "brand": "Nike",
            "special_events": "",
            "country/region": "Vietnam",
            "region": "SE ASIA",
            "geoData": null
        },
        {
            "contractor_id": "VN000616",
            "code": "EGN VIE",
            "address": "No 28 DT743 Road Song Than 2 Industrial Zone",
            "workers": 1948,
            "workers_line": 1874,
            "workers_female": 71,
            "workers_migrant": 0,
            "lat": 10.92194,
            "lon": 106.74163,
            "name": "VIRTUE KING VIETNAM COMPANY LIMITED",
            "city": "Binh Duong",
            "state": "Bình Duong",
            "postal_code": "72000",
            "average_worker_age": 24,
            "supplier_name": "GUANG DER",
            "factory_tier": "Tier 1/ATL",
            "product_type": "Equipment",
            "brand": "Nike",
            "special_events": "Collegiate",
            "country/region": "Vietnam",
            "region": "SE ASIA",
            "geoData": null
        },
        {
            "contractor_id": "VN000874",
            "code": "VN000874",
            "address": "Avenue D1 2 1",
            "workers": 292,
            "workers_line": 258,
            "workers_female": 50,
            "workers_migrant": 0,
            "lat": 10.98659,
            "lon": 106.670598,
            "name": "Vietnam ECI Elastic Co., Ltd",
            "city": "Binh Duong Ward",
            "state": "Ho Chi Minh",
            "postal_code": "820000",
            "average_worker_age": 32,
            "supplier_name": "ECI",
            "factory_tier": "Tier 2/BTL",
            "product_type": "Apparel",
            "brand": "Nike",
            "special_events": "",
            "country/region": "Vietnam",
            "region": "SE ASIA",
            "geoData": null
        },
        {
            "contractor_id": "VN000848",
            "code": "VN000848",
            "address": "ROAD NO 5 LONG THANH IZ AN PHUOC COMMUNE DONG NAI",
            "workers": 374,
            "workers_line": 192,
            "workers_female": 4,
            "workers_migrant": 0,
            "lat": 10.80039,
            "lon": 106.92411,
            "name": "DAEWON CHEMICAL VINA CO., LTD.",
            "city": "LONG THANH",
            "state": "Ðng Nai",
            "postal_code": "810000",
            "average_worker_age": 31,
            "supplier_name": "DAEWON",
            "factory_tier": "Tier 2/BTL",
            "product_type": "Footwear",
            "brand": "Nike",
            "special_events": "",
            "country/region": "Vietnam",
            "region": "SE ASIA",
            "geoData": null
        },
        {
            "contractor_id": "VN000569",
            "code": "VW VIE",
            "address": "Xuan Loc Industrial Zone",
            "workers": 19155,
            "workers_line": 16962,
            "workers_female": 66,
            "workers_migrant": 0,
            "lat": 10.907818,
            "lon": 107.413287,
            "name": "Vietnam Dona Standard Footwear Co., Ltd",
            "city": "Xuan Loc District",
            "state": "Ðng Nai",
            "postal_code": "76000",
            "average_worker_age": 35,
            "supplier_name": "FENG TAY",
            "factory_tier": "Tier 1/ATL",
            "product_type": "Footwear",
            "brand": "Nike",
            "special_events": "",
            "country/region": "Vietnam",
            "region": "SE ASIA",
            "geoData": null
        }
    ]
}